{"type":"FeatureCollection", "features": [
{"type":"Feature","geometry":{"type":"Point","coordinates":[113.04707368709951,36.28158501282863]},"properties":{"ID":"140411000001","name":"漳泽水库","SOURCE":"Q2011","GDB_FROM_D":"2012-08-30T00:00:00.000Z","GDB_TO_DAT":"9999-01-01T00:00:00.000Z","TYPE_":1,"longtitude":0,"altitude":0,"type":"1","ORIG_FID":0}},
{"type":"Feature","geometry":{"type":"Point","coordinates":[111.78243197113697,37.63832746156581]},"properties":{"ID":"141122000001","name":"柏叶口水库","SOURCE":"Q2011","GDB_FROM_D":"2012-08-30T00:00:00.000Z","GDB_TO_DAT":"9999-01-01T00:00:00.000Z","TYPE_":1,"longtitude":0,"altitude":0,"type":"1","ORIG_FID":1}},
{"type":"Feature","geometry":{"type":"Point","coordinates":[112.31844637036026,35.81903497391596]},"properties":{"ID":"140521000004","name":"张峰水库","SOURCE":"Q2011","GDB_FROM_D":"2012-08-30T00:00:00.000Z","GDB_TO_DAT":"9999-01-01T00:00:00.000Z","TYPE_":1,"longtitude":0,"altitude":0,"type":"1","ORIG_FID":2}},
{"type":"Feature","geometry":{"type":"Point","coordinates":[112.79389826900798,36.570937053511805]},"properties":{"ID":"140423000010","name":"后湾水库","SOURCE":"Q2011","GDB_FROM_D":"2012-08-30T00:00:00.000Z","GDB_TO_DAT":"9999-01-01T00:00:00.000Z","TYPE_":1,"longtitude":0,"altitude":0,"type":"1","ORIG_FID":3}},
{"type":"Feature","geometry":{"type":"Point","coordinates":[113.74186729294732,39.97361991554713]},"properties":{"ID":"140227000016","name":"册田水库","SOURCE":"Q2011","GDB_FROM_D":"2012-08-30T00:00:00.000Z","GDB_TO_DAT":"9999-01-01T00:00:00.000Z","TYPE_":1,"longtitude":0,"altitude":0,"type":"1","ORIG_FID":4}},
{"type":"Feature","geometry":{"type":"Point","coordinates":[113.18004535351022,37.71520054443263]},"properties":{"ID":"140725000007","name":"松塔水电站一水库","SOURCE":"Q2011","GDB_FROM_D":"2012-08-30T00:00:00.000Z","GDB_TO_DAT":"9999-01-01T00:00:00.000Z","TYPE_":1,"longtitude":0,"altitude":0,"type":"","ORIG_FID":5}},
{"type":"Feature","geometry":{"type":"Point","coordinates":[112.35015748546155,37.965503689164194]},"properties":{"ID":"140108000001","name":"汾河二库","SOURCE":"Q2011","GDB_FROM_D":"2012-08-30T00:00:00.000Z","GDB_TO_DAT":"9999-01-01T00:00:00.000Z","TYPE_":0,"longtitude":1,"altitude":0,"type":"","ORIG_FID":6}},
{"type":"Feature","geometry":{"type":"Point","coordinates":[111.87814661688644,38.08635955595681]},"properties":{"ID":"140123000001","name":"汾河水库","SOURCE":"Q2011","GDB_FROM_D":"2012-08-30T00:00:00.000Z","GDB_TO_DAT":"9999-01-01T00:00:00.000Z","TYPE_":0,"longtitude":0,"altitude":0,"type":"","ORIG_FID":7}},
{"type":"Feature","geometry":{"type":"Point","coordinates":[112.00968868998866,37.522048945069265]},"properties":{"ID":"141121000003","name":"文峪河水库","SOURCE":"Q2011","GDB_FROM_D":"2012-08-30T00:00:00.000Z","GDB_TO_DAT":"9999-01-01T00:00:00.000Z","TYPE_":1,"longtitude":0,"altitude":0,"type":"","ORIG_FID":8}},
{"type":"Feature","geometry":{"type":"Point","coordinates":[112.89592027337339,36.851225751085806]},"properties":{"ID":"140429000003","name":"关河水库","SOURCE":"Q2011","GDB_FROM_D":"2012-08-30T00:00:00.000Z","GDB_TO_DAT":"9999-01-01T00:00:00.000Z","TYPE_":1,"longtitude":0,"altitude":0,"type":"","ORIG_FID":9}}
]}