{"type":"FeatureCollection", "features": [
{"type":"Feature","geometry":{"type":"Point","coordinates":[113.01214993904966,35.418893092317866]},"properties":{"ID":"140525000026","NAME":"围滩水电站-水库","SOURCE":"Q2011","GDB_FROM_D":"2012-08-30T00:00:00.000Z","GDB_TO_DAT":"9999-01-01T00:00:00.000Z","TYPE_":0,"longtitude":0,"altitude":0,"type":"0","ORIG_FID":0}},
{"type":"Feature","geometry":{"type":"Point","coordinates":[112.84361022413563,36.3450652145245]},"properties":{"ID":"140424000029","NAME":"魏村水库","SOURCE":"Q2011","GDB_FROM_D":"2012-08-30T00:00:00.000Z","GDB_TO_DAT":"9999-01-01T00:00:00.000Z","TYPE_":0,"longtitude":0,"altitude":0,"type":"0","ORIG_FID":1}},
{"type":"Feature","geometry":{"type":"Point","coordinates":[113.88992898212632,40.01565077704669]},"properties":{"ID":"140221000016","NAME":"尉家小堡水库","SOURCE":"Q2011","GDB_FROM_D":"2012-08-30T00:00:00.000Z","GDB_TO_DAT":"9999-01-01T00:00:00.000Z","TYPE_":0,"longtitude":0,"altitude":0,"type":"0","ORIG_FID":2}},
{"type":"Feature","geometry":{"type":"Point","coordinates":[111.55844210408245,35.12794528408424]},"properties":{"ID":"140828000008","NAME":"温峪水库","SOURCE":"Q2011","GDB_FROM_D":"2012-08-30T00:00:00.000Z","GDB_TO_DAT":"9999-01-01T00:00:00.000Z","TYPE_":0,"longtitude":0,"altitude":0,"type":"0","ORIG_FID":3}},
{"type":"Feature","geometry":{"type":"Point","coordinates":[113.37562931169876,40.083621885060154]},"properties":{"ID":"140211000002","NAME":"文瀛湖水库","SOURCE":"Q2011","GDB_FROM_D":"2012-08-30T00:00:00.000Z","GDB_TO_DAT":"9999-01-01T00:00:00.000Z","TYPE_":0,"longtitude":0,"altitude":0,"type":"0","ORIG_FID":4}},
{"type":"Feature","geometry":{"type":"Point","coordinates":[113.12022602312982,35.63776738642232]},"properties":{"ID":"140524000013","NAME":"梧桐水库","SOURCE":"Q2011","GDB_FROM_D":"2012-08-30T00:00:00.000Z","GDB_TO_DAT":"9999-01-01T00:00:00.000Z","TYPE_":0,"longtitude":0,"altitude":0,"type":"0","ORIG_FID":5}},
{"type":"Feature","geometry":{"type":"Point","coordinates":[113.10927700160705,38.70064009272183]},"properties":{"ID":"140922000005","NAME":"郭家寨水库","SOURCE":"Q2011","GDB_FROM_D":"2012-08-30T00:00:00.000Z","GDB_TO_DAT":"9999-01-01T00:00:00.000Z","TYPE_":0,"longtitude":0,"altitude":0,"type":"0","ORIG_FID":6}},
{"type":"Feature","geometry":{"type":"Point","coordinates":[111.03867893437264,34.8953086268312]},"properties":{"ID":"140829000020","NAME":"郭山东水库","SOURCE":"Q2011","GDB_FROM_D":"2012-08-30T00:00:00.000Z","GDB_TO_DAT":"9999-01-01T00:00:00.000Z","TYPE_":0,"longtitude":0,"altitude":0,"type":"0","ORIG_FID":7}},
{"type":"Feature","geometry":{"type":"Point","coordinates":[111.03495406663947,34.89399697378571]},"properties":{"ID":"140829000021","NAME":"郭山西水库","SOURCE":"Q2011","GDB_FROM_D":"2012-08-30T00:00:00.000Z","GDB_TO_DAT":"9999-01-01T00:00:00.000Z","TYPE_":0,"longtitude":0,"altitude":0,"type":"0","ORIG_FID":8}},
{"type":"Feature","geometry":{"type":"Point","coordinates":[111.6788205258904,37.965915266834834]},"properties":{"ID":"140123000002","NAME":"国练水库","SOURCE":"Q2011","GDB_FROM_D":"2012-08-30T00:00:00.000Z","GDB_TO_DAT":"9999-01-01T00:00:00.000Z","TYPE_":0,"longtitude":0,"altitude":0,"type":"0","ORIG_FID":9}},
{"type":"Feature","geometry":{"type":"Point","coordinates":[112.30951598761223,40.226070138260376]},"properties":{"ID":"140623000006","NAME":"海子湾水库","SOURCE":"Q2011","GDB_FROM_D":"2012-08-30T00:00:00.000Z","GDB_TO_DAT":"9999-01-01T00:00:00.000Z","TYPE_":0,"longtitude":0,"altitude":0,"type":"0","ORIG_FID":10}},
{"type":"Feature","geometry":{"type":"Point","coordinates":[112.73179987034571,38.9153406800232]},"properties":{"ID":"140981000003","NAME":"韩村水库","SOURCE":"Q2011","GDB_FROM_D":"2012-08-30T00:00:00.000Z","GDB_TO_DAT":"9999-01-01T00:00:00.000Z","TYPE_":0,"longtitude":0,"altitude":0,"type":"0","ORIG_FID":12}},
{"type":"Feature","geometry":{"type":"Point","coordinates":[112.8652060652299,36.51578245043864]},"properties":{"ID":"140423000001","NAME":"合漳水库","SOURCE":"Q2011","GDB_FROM_D":"2012-08-30T00:00:00.000Z","GDB_TO_DAT":"9999-01-01T00:00:00.000Z","TYPE_":0,"longtitude":0,"altitude":0,"type":"0","ORIG_FID":13}},
{"type":"Feature","geometry":{"type":"Point","coordinates":[113.82699809497107,37.56742634061387]},"properties":{"ID":"140724000016","NAME":"南峪沟水库","SOURCE":"Q2011","GDB_FROM_D":"2012-08-30T00:00:00.000Z","GDB_TO_DAT":"9999-01-01T00:00:00.000Z","TYPE_":0,"longtitude":0,"altitude":0,"type":"0","ORIG_FID":15}},
{"type":"Feature","geometry":{"type":"Point","coordinates":[113.63342088197975,37.659576012342576]},"properties":{"ID":"140724000005","NAME":"庞家峪水库","SOURCE":"Q2011","GDB_FROM_D":"2012-08-30T00:00:00.000Z","GDB_TO_DAT":"9999-01-01T00:00:00.000Z","TYPE_":0,"longtitude":0,"altitude":0,"type":"0","ORIG_FID":16}},
{"type":"Feature","geometry":{"type":"Point","coordinates":[112.7572081803242,35.38914155757887]},"properties":{"ID":"140525000002","NAME":"彭沟水库","SOURCE":"Q2011","GDB_FROM_D":"2012-08-30T00:00:00.000Z","GDB_TO_DAT":"9999-01-01T00:00:00.000Z","TYPE_":0,"longtitude":0,"altitude":0,"type":"0","ORIG_FID":17}},
{"type":"Feature","geometry":{"type":"Point","coordinates":[112.04175266522574,39.86186405194461]},"properties":{"ID":"140603000001","NAME":"平鲁区长城水库","SOURCE":"Q2011","GDB_FROM_D":"2012-08-30T00:00:00.000Z","GDB_TO_DAT":"9999-01-01T00:00:00.000Z","TYPE_":0,"longtitude":0,"altitude":0,"type":"0","ORIG_FID":18}},
{"type":"Feature","geometry":{"type":"Point","coordinates":[113.8191972028047,37.48508494164533]},"properties":{"ID":"140724000013","NAME":"平原水库","SOURCE":"Q2011","GDB_FROM_D":"2012-08-30T00:00:00.000Z","GDB_TO_DAT":"9999-01-01T00:00:00.000Z","TYPE_":0,"longtitude":0,"altitude":0,"type":"0","ORIG_FID":19}},
{"type":"Feature","geometry":{"type":"Point","coordinates":[113.18843369645694,36.0313309542505]},"properties":{"ID":"140427000008","NAME":"葡萄山水库","SOURCE":"Q2011","GDB_FROM_D":"2012-08-30T00:00:00.000Z","GDB_TO_DAT":"9999-01-01T00:00:00.000Z","TYPE_":0,"longtitude":0,"altitude":0,"type":"0","ORIG_FID":20}},
{"type":"Feature","geometry":{"type":"Point","coordinates":[112.31335838751741,35.7627631399971]},"properties":{"ID":"140521000002","NAME":"蒲峪水库","SOURCE":"Q2011","GDB_FROM_D":"2012-08-30T00:00:00.000Z","GDB_TO_DAT":"9999-01-01T00:00:00.000Z","TYPE_":0,"longtitude":0,"altitude":0,"type":"0","ORIG_FID":21}},
{"type":"Feature","geometry":{"type":"Point","coordinates":[113.8634453921825,37.51567982578751]},"properties":{"ID":"140724000019","NAME":"七里沟水库","SOURCE":"Q2011","GDB_FROM_D":"2012-08-30T00:00:00.000Z","GDB_TO_DAT":"9999-01-01T00:00:00.000Z","TYPE_":0,"longtitude":0,"altitude":0,"type":"0","ORIG_FID":22}},
{"type":"Feature","geometry":{"type":"Point","coordinates":[112.43833353919422,39.33139315013044]},"properties":{"ID":"140602000004","NAME":"七里河二库","SOURCE":"Q2011","GDB_FROM_D":"2012-08-30T00:00:00.000Z","GDB_TO_DAT":"9999-01-01T00:00:00.000Z","TYPE_":0,"longtitude":0,"altitude":0,"type":"0","ORIG_FID":23}},
{"type":"Feature","geometry":{"type":"Point","coordinates":[111.3646563257544,35.93537259681451]},"properties":{"ID":"141023000002","NAME":"司马水库","SOURCE":"Q2011","GDB_FROM_D":"2012-08-30T00:00:00.000Z","GDB_TO_DAT":"9999-01-01T00:00:00.000Z","TYPE_":0,"longtitude":0,"altitude":0,"type":"0","ORIG_FID":25}},
{"type":"Feature","geometry":{"type":"Point","coordinates":[112.63476267317138,35.535056704822516]},"properties":{"ID":"140525000020","NAME":"寺河水库","SOURCE":"Q2011","GDB_FROM_D":"2012-08-30T00:00:00.000Z","GDB_TO_DAT":"9999-01-01T00:00:00.000Z","TYPE_":0,"longtitude":0,"altitude":0,"type":"0","ORIG_FID":26}},
{"type":"Feature","geometry":{"type":"Point","coordinates":[112.5305251995457,38.09920273775015]},"properties":{"ID":"140122000001","NAME":"四合水库","SOURCE":"Q2011","GDB_FROM_D":"2012-08-30T00:00:00.000Z","GDB_TO_DAT":"9999-01-01T00:00:00.000Z","TYPE_":0,"longtitude":0,"altitude":0,"type":"0","ORIG_FID":27}},
{"type":"Feature","geometry":{"type":"Point","coordinates":[112.65819082711816,37.39457531983232]},"properties":{"ID":"140726000005","NAME":"四卦水库","SOURCE":"Q2011","GDB_FROM_D":"2012-08-30T00:00:00.000Z","GDB_TO_DAT":"9999-01-01T00:00:00.000Z","TYPE_":0,"longtitude":0,"altitude":0,"type":"0","ORIG_FID":28}},
{"type":"Feature","geometry":{"type":"Point","coordinates":[112.78991342136365,36.774009975938604]},"properties":{"ID":"140429000001","NAME":"松北水库","SOURCE":"Q2011","GDB_FROM_D":"2012-08-30T00:00:00.000Z","GDB_TO_DAT":"9999-01-01T00:00:00.000Z","TYPE_":0,"longtitude":0,"altitude":0,"type":"0","ORIG_FID":29}},
{"type":"Feature","geometry":{"type":"Point","coordinates":[110.9527285762084,36.05517800051419]},"properties":{"ID":"141029000002","NAME":"宋家沟水库","SOURCE":"Q2011","GDB_FROM_D":"2012-08-30T00:00:00.000Z","GDB_TO_DAT":"9999-01-01T00:00:00.000Z","TYPE_":0,"longtitude":0,"altitude":0,"type":"0","ORIG_FID":30}},
{"type":"Feature","geometry":{"type":"Point","coordinates":[113.71363952774854,40.156815811656266]},"properties":{"ID":"140221000024","NAME":"孙家港水库","SOURCE":"Q2011","GDB_FROM_D":"2012-08-30T00:00:00.000Z","GDB_TO_DAT":"9999-01-01T00:00:00.000Z","TYPE_":0,"longtitude":0,"altitude":0,"type":"0","ORIG_FID":31}},
{"type":"Feature","geometry":{"type":"Point","coordinates":[113.04706559322047,35.74272078278964]},"properties":{"ID":"140581000010","NAME":"吴庄水库","SOURCE":"Q2011","GDB_FROM_D":"2012-08-30T00:00:00.000Z","GDB_TO_DAT":"9999-01-01T00:00:00.000Z","TYPE_":0,"longtitude":0,"altitude":0,"type":"0","ORIG_FID":32}},
{"type":"Feature","geometry":{"type":"Point","coordinates":[110.86763252145929,34.88571593136199]},"properties":{"ID":"140802000016","NAME":"五龙峪水库","SOURCE":"Q2011","GDB_FROM_D":"2012-08-30T00:00:00.000Z","GDB_TO_DAT":"9999-01-01T00:00:00.000Z","TYPE_":0,"longtitude":0,"altitude":0,"type":"0","ORIG_FID":33}},
{"type":"Feature","geometry":{"type":"Point","coordinates":[111.89774314086826,36.23453923697257]},"properties":{"ID":"141025000001","NAME":"五马水库","SOURCE":"Q2011","GDB_FROM_D":"2012-08-30T00:00:00.000Z","GDB_TO_DAT":"9999-01-01T00:00:00.000Z","TYPE_":0,"longtitude":0,"altitude":0,"type":"0","ORIG_FID":34}},
{"type":"Feature","geometry":{"type":"Point","coordinates":[112.30399177768324,37.082231050924705]},"properties":{"ID":"140728000005","NAME":"五曲湾水库","SOURCE":"Q2011","GDB_FROM_D":"2012-08-30T00:00:00.000Z","GDB_TO_DAT":"9999-01-01T00:00:00.000Z","TYPE_":0,"longtitude":0,"altitude":0,"type":"0","ORIG_FID":35}},
{"type":"Feature","geometry":{"type":"Point","coordinates":[113.23646970552966,36.02790074088995]},"properties":{"ID":"140427000001","NAME":"西堡水库","SOURCE":"Q2011","GDB_FROM_D":"2012-08-30T00:00:00.000Z","GDB_TO_DAT":"9999-01-01T00:00:00.000Z","TYPE_":0,"longtitude":0,"altitude":0,"type":"0","ORIG_FID":36}},
{"type":"Feature","geometry":{"type":"Point","coordinates":[113.24662391305326,36.199156515709404]},"properties":{"ID":"140427000007","NAME":"河东水库","SOURCE":"Q2011","GDB_FROM_D":"2012-08-30T00:00:00.000Z","GDB_TO_DAT":"9999-01-01T00:00:00.000Z","TYPE_":0,"longtitude":0,"altitude":0,"type":"0","ORIG_FID":37}},
{"type":"Feature","geometry":{"type":"Point","coordinates":[112.68524598209801,37.79309194765784]},"properties":{"ID":"140702000003","NAME":"河口水库","SOURCE":"Q2011","GDB_FROM_D":"2012-08-30T00:00:00.000Z","GDB_TO_DAT":"9999-01-01T00:00:00.000Z","TYPE_":0,"longtitude":0,"altitude":0,"type":"0","ORIG_FID":38}},
{"type":"Feature","geometry":{"type":"Point","coordinates":[111.14887425957212,34.97902383775836]},"properties":{"ID":"140829000028","NAME":"横洼水库","SOURCE":"Q2011","GDB_FROM_D":"2012-08-30T00:00:00.000Z","GDB_TO_DAT":"9999-01-01T00:00:00.000Z","TYPE_":0,"longtitude":0,"altitude":0,"type":"0","ORIG_FID":39}},
{"type":"Feature","geometry":{"type":"Point","coordinates":[114.33735339447364,39.783281967354924]},"properties":{"ID":"140223000005","NAME":"虹桥沟水库","SOURCE":"Q2011","GDB_FROM_D":"2012-08-30T00:00:00.000Z","GDB_TO_DAT":"9999-01-01T00:00:00.000Z","TYPE_":0,"longtitude":0,"altitude":0,"type":"0","ORIG_FID":40}},
{"type":"Feature","geometry":{"type":"Point","coordinates":[111.55371975833278,36.219169549148205]},"properties":{"ID":"141002000004","NAME":"洪堡水库","SOURCE":"Q2011","GDB_FROM_D":"2012-08-30T00:00:00.000Z","GDB_TO_DAT":"9999-01-01T00:00:00.000Z","TYPE_":0,"longtitude":0,"altitude":0,"type":"0","ORIG_FID":41}},
{"type":"Feature","geometry":{"type":"Point","coordinates":[113.257610433912,35.66638397978734]},"properties":{"ID":"140524000011","NAME":"洪河头水库","SOURCE":"Q2011","GDB_FROM_D":"2012-08-30T00:00:00.000Z","GDB_TO_DAT":"9999-01-01T00:00:00.000Z","TYPE_":0,"longtitude":0,"altitude":0,"type":"0","ORIG_FID":42}},
{"type":"Feature","geometry":{"type":"Point","coordinates":[114.1033877464747,37.59544825712806]},"properties":{"ID":"140724000018","NAME":"洪泉水库","SOURCE":"Q2011","GDB_FROM_D":"2012-08-30T00:00:00.000Z","GDB_TO_DAT":"9999-01-01T00:00:00.000Z","TYPE_":0,"longtitude":0,"altitude":0,"type":"0","ORIG_FID":43}},
{"type":"Feature","geometry":{"type":"Point","coordinates":[112.49640434289321,36.29568125203386]},"properties":{"ID":"140424000020","NAME":"红泥沟水库","SOURCE":"Q2011","GDB_FROM_D":"2012-08-30T00:00:00.000Z","GDB_TO_DAT":"9999-01-01T00:00:00.000Z","TYPE_":0,"longtitude":0,"altitude":0,"type":"0","ORIG_FID":44}},
{"type":"Feature","geometry":{"type":"Point","coordinates":[111.21694241852838,34.891443411443774]},"properties":{"ID":"140829000024","NAME":"红旗二库水库","SOURCE":"Q2011","GDB_FROM_D":"2012-08-30T00:00:00.000Z","GDB_TO_DAT":"9999-01-01T00:00:00.000Z","TYPE_":0,"longtitude":0,"altitude":0,"type":"0","ORIG_FID":45}},
{"type":"Feature","geometry":{"type":"Point","coordinates":[112.42815041079373,39.33534376255686]},"properties":{"ID":"140602000003","NAME":"七里河一库","SOURCE":"Q2011","GDB_FROM_D":"2012-08-30T00:00:00.000Z","GDB_TO_DAT":"9999-01-01T00:00:00.000Z","TYPE_":0,"longtitude":0,"altitude":0,"type":"0","ORIG_FID":46}},
{"type":"Feature","geometry":{"type":"Point","coordinates":[111.46395770579748,37.64079911227565]},"properties":{"ID":"141102000002","NAME":"千年水库","SOURCE":"Q2011","GDB_FROM_D":"2012-08-30T00:00:00.000Z","GDB_TO_DAT":"9999-01-01T00:00:00.000Z","TYPE_":0,"longtitude":0,"altitude":0,"type":"0","ORIG_FID":47}},
{"type":"Feature","geometry":{"type":"Point","coordinates":[111.18289961567964,35.6026750873045]},"properties":{"ID":"140825000004","NAME":"桥西水库","SOURCE":"Q2011","GDB_FROM_D":"2012-08-30T00:00:00.000Z","GDB_TO_DAT":"9999-01-01T00:00:00.000Z","TYPE_":0,"longtitude":0,"altitude":0,"type":"0","ORIG_FID":48}},
{"type":"Feature","geometry":{"type":"Point","coordinates":[113.21093606014175,35.84115234329764]},"properties":{"ID":"140524000004","NAME":"秦家庄水库","SOURCE":"Q2011","GDB_FROM_D":"2012-08-30T00:00:00.000Z","GDB_TO_DAT":"9999-01-01T00:00:00.000Z","TYPE_":0,"longtitude":0,"altitude":0,"type":"0","ORIG_FID":49}},
{"type":"Feature","geometry":{"type":"Point","coordinates":[113.59500413772825,37.59159916863926]},"properties":{"ID":"140724000009","NAME":"秦山水库","SOURCE":"Q2011","GDB_FROM_D":"2012-08-30T00:00:00.000Z","GDB_TO_DAT":"9999-01-01T00:00:00.000Z","TYPE_":0,"longtitude":0,"altitude":0,"type":"0","ORIG_FID":50}},
{"type":"Feature","geometry":{"type":"Point","coordinates":[112.95634610797978,35.802793751252615]},"properties":{"ID":"140581000003","NAME":"秦庄水库","SOURCE":"Q2011","GDB_FROM_D":"2012-08-30T00:00:00.000Z","GDB_TO_DAT":"9999-01-01T00:00:00.000Z","TYPE_":0,"longtitude":0,"altitude":0,"type":"0","ORIG_FID":51}},
{"type":"Feature","geometry":{"type":"Point","coordinates":[113.93561396057301,40.03855214196994]},"properties":{"ID":"140221000015","NAME":"孙启庄水库","SOURCE":"Q2011","GDB_FROM_D":"2012-08-30T00:00:00.000Z","GDB_TO_DAT":"9999-01-01T00:00:00.000Z","TYPE_":0,"longtitude":0,"altitude":0,"type":"0","ORIG_FID":52}},
{"type":"Feature","geometry":{"type":"Point","coordinates":[111.50929443470476,36.15704398339341]},"properties":{"ID":"141002000005","NAME":"孙曲水库","SOURCE":"Q2011","GDB_FROM_D":"2012-08-30T00:00:00.000Z","GDB_TO_DAT":"9999-01-01T00:00:00.000Z","TYPE_":0,"longtitude":0,"altitude":0,"type":"0","ORIG_FID":53}},
{"type":"Feature","geometry":{"type":"Point","coordinates":[113.37133439756894,36.505750096978986]},"properties":{"ID":"140426000002","NAME":"塔坡水库","SOURCE":"Q2011","GDB_FROM_D":"2012-08-30T00:00:00.000Z","GDB_TO_DAT":"9999-01-01T00:00:00.000Z","TYPE_":0,"longtitude":0,"altitude":0,"type":"0","ORIG_FID":54}},
{"type":"Feature","geometry":{"type":"Point","coordinates":[113.14281447371296,35.55991874980348]},"properties":{"ID":"140524000019","NAME":"台北水库","SOURCE":"Q2011","GDB_FROM_D":"2012-08-30T00:00:00.000Z","GDB_TO_DAT":"9999-01-01T00:00:00.000Z","TYPE_":0,"longtitude":0,"altitude":0,"type":"0","ORIG_FID":55}},
{"type":"Feature","geometry":{"type":"Point","coordinates":[111.00652357783412,38.07159533814103]},"properties":{"ID":"141124000002","NAME":"太平水库","SOURCE":"Q2011","GDB_FROM_D":"2012-08-30T00:00:00.000Z","GDB_TO_DAT":"9999-01-01T00:00:00.000Z","TYPE_":0,"longtitude":0,"altitude":0,"type":"0","ORIG_FID":56}},
{"type":"Feature","geometry":{"type":"Point","coordinates":[112.51073758347744,39.3208332581597]},"properties":{"ID":"140602000001","NAME":"太平窑水库","SOURCE":"Q2011","GDB_FROM_D":"2012-08-30T00:00:00.000Z","GDB_TO_DAT":"9999-01-01T00:00:00.000Z","TYPE_":0,"longtitude":0,"altitude":0,"type":"0","ORIG_FID":57}},
{"type":"Feature","geometry":{"type":"Point","coordinates":[114.01473789645792,39.38211933750138]},"properties":{"ID":"140224000003","NAME":"唐河水电站-水库","SOURCE":"Q2011","GDB_FROM_D":"2012-08-30T00:00:00.000Z","GDB_TO_DAT":"9999-01-01T00:00:00.000Z","TYPE_":0,"longtitude":0,"altitude":0,"type":"0","ORIG_FID":58}},
{"type":"Feature","geometry":{"type":"Point","coordinates":[112.95620115636221,35.86907149872067]},"properties":{"ID":"140581000017","NAME":"西仓水库","SOURCE":"Q2011","GDB_FROM_D":"2012-08-30T00:00:00.000Z","GDB_TO_DAT":"9999-01-01T00:00:00.000Z","TYPE_":0,"longtitude":0,"altitude":0,"type":"0","ORIG_FID":59}},
{"type":"Feature","geometry":{"type":"Point","coordinates":[112.77404272165865,35.67145120799617]},"properties":{"ID":"140525000007","NAME":"西大阳水库","SOURCE":"Q2011","GDB_FROM_D":"2012-08-30T00:00:00.000Z","GDB_TO_DAT":"9999-01-01T00:00:00.000Z","TYPE_":0,"longtitude":0,"altitude":0,"type":"0","ORIG_FID":60}},
{"type":"Feature","geometry":{"type":"Point","coordinates":[113.79607139230713,40.1598770677012]},"properties":{"ID":"140221000025","NAME":"西佃水库","SOURCE":"Q2011","GDB_FROM_D":"2012-08-30T00:00:00.000Z","GDB_TO_DAT":"9999-01-01T00:00:00.000Z","TYPE_":0,"longtitude":0,"altitude":0,"type":"0","ORIG_FID":61}},
{"type":"Feature","geometry":{"type":"Point","coordinates":[112.33721801845647,35.560593175772226]},"properties":{"ID":"140522000013","NAME":"西丰水库","SOURCE":"Q2011","GDB_FROM_D":"2012-08-30T00:00:00.000Z","GDB_TO_DAT":"9999-01-01T00:00:00.000Z","TYPE_":0,"longtitude":0,"altitude":0,"type":"0","ORIG_FID":62}},
{"type":"Feature","geometry":{"type":"Point","coordinates":[110.97267737105474,34.807831549162415]},"properties":{"ID":"140829000009","NAME":"西侯水库","SOURCE":"Q2011","GDB_FROM_D":"2012-08-30T00:00:00.000Z","GDB_TO_DAT":"9999-01-01T00:00:00.000Z","TYPE_":0,"longtitude":0,"altitude":0,"type":"0","ORIG_FID":64}},
{"type":"Feature","geometry":{"type":"Point","coordinates":[112.04055347530733,37.068815171213785]},"properties":{"ID":"140781000004","NAME":"西湖龙水库","SOURCE":"Q2011","GDB_FROM_D":"2012-08-30T00:00:00.000Z","GDB_TO_DAT":"9999-01-01T00:00:00.000Z","TYPE_":0,"longtitude":0,"altitude":0,"type":"0","ORIG_FID":65}},
{"type":"Feature","geometry":{"type":"Point","coordinates":[111.67249305869743,35.705174396280455]},"properties":{"ID":"141022000010","NAME":"西梁水库","SOURCE":"Q2011","GDB_FROM_D":"2012-08-30T00:00:00.000Z","GDB_TO_DAT":"9999-01-01T00:00:00.000Z","TYPE_":0,"longtitude":0,"altitude":0,"type":"0","ORIG_FID":66}},
{"type":"Feature","geometry":{"type":"Point","coordinates":[111.20715487107326,34.8842774066044]},"properties":{"ID":"140829000023","NAME":"红旗一库水库","SOURCE":"Q2011","GDB_FROM_D":"2012-08-30T00:00:00.000Z","GDB_TO_DAT":"9999-01-01T00:00:00.000Z","TYPE_":0,"longtitude":0,"altitude":0,"type":"0","ORIG_FID":67}},
{"type":"Feature","geometry":{"type":"Point","coordinates":[111.25621328652191,35.1198548736894]},"properties":{"ID":"140828000005","NAME":"红沙河水库","SOURCE":"Q2011","GDB_FROM_D":"2012-08-30T00:00:00.000Z","GDB_TO_DAT":"9999-01-01T00:00:00.000Z","TYPE_":0,"longtitude":0,"altitude":0,"type":"0","ORIG_FID":68}},
{"type":"Feature","geometry":{"type":"Point","coordinates":[112.32232941629803,35.45453697578224]},"properties":{"ID":"140522000003","NAME":"红卫水库","SOURCE":"Q2011","GDB_FROM_D":"2012-08-30T00:00:00.000Z","GDB_TO_DAT":"9999-01-01T00:00:00.000Z","TYPE_":0,"longtitude":0,"altitude":0,"type":"0","ORIG_FID":69}},
{"type":"Feature","geometry":{"type":"Point","coordinates":[111.1625897059493,35.484577833136605]},"properties":{"ID":"140825000005","NAME":"红叶泉水库","SOURCE":"Q2011","GDB_FROM_D":"2012-08-30T00:00:00.000Z","GDB_TO_DAT":"9999-01-01T00:00:00.000Z","TYPE_":0,"longtitude":0,"altitude":0,"type":"0","ORIG_FID":70}},
{"type":"Feature","geometry":{"type":"Point","coordinates":[110.99159438785841,34.783577774933924]},"properties":{"ID":"140829000006","NAME":"后村水库","SOURCE":"Q2011","GDB_FROM_D":"2012-08-30T00:00:00.000Z","GDB_TO_DAT":"9999-01-01T00:00:00.000Z","TYPE_":0,"longtitude":0,"altitude":0,"type":"0","ORIG_FID":71}},
{"type":"Feature","geometry":{"type":"Point","coordinates":[113.83974140921003,37.82567145598276]},"properties":{"ID":"140321000014","NAME":"后底沟水库","SOURCE":"Q2011","GDB_FROM_D":"2012-08-30T00:00:00.000Z","GDB_TO_DAT":"9999-01-01T00:00:00.000Z","TYPE_":0,"longtitude":0,"altitude":0,"type":"0","ORIG_FID":72}},
{"type":"Feature","geometry":{"type":"Point","coordinates":[113.85503092761242,40.23307489990101]},"properties":{"ID":"140221000011","NAME":"后营水库","SOURCE":"Q2011","GDB_FROM_D":"2012-08-30T00:00:00.000Z","GDB_TO_DAT":"9999-01-01T00:00:00.000Z","TYPE_":0,"longtitude":0,"altitude":0,"type":"0","ORIG_FID":73}},
{"type":"Feature","geometry":{"type":"Point","coordinates":[112.65995701053703,37.056647144144925]},"properties":{"ID":"140429000004","NAME":"胡庄水库","SOURCE":"Q2011","GDB_FROM_D":"2012-08-30T00:00:00.000Z","GDB_TO_DAT":"9999-01-01T00:00:00.000Z","TYPE_":0,"longtitude":0,"altitude":0,"type":"0","ORIG_FID":74}},
{"type":"Feature","geometry":{"type":"Point","coordinates":[112.64417860004598,36.80921087379981]},"properties":{"ID":"140430000004","NAME":"沁县景村水库","SOURCE":"Q2011","GDB_FROM_D":"2012-08-30T00:00:00.000Z","GDB_TO_DAT":"9999-01-01T00:00:00.000Z","TYPE_":0,"longtitude":0,"altitude":0,"type":"0","ORIG_FID":75}},
{"type":"Feature","geometry":{"type":"Point","coordinates":[112.67439345287632,36.78000569790729]},"properties":{"ID":"140430000005","NAME":"沁县梁家湾水库","SOURCE":"Q2011","GDB_FROM_D":"2012-08-30T00:00:00.000Z","GDB_TO_DAT":"9999-01-01T00:00:00.000Z","TYPE_":0,"longtitude":0,"altitude":0,"type":"0","ORIG_FID":76}},
{"type":"Feature","geometry":{"type":"Point","coordinates":[112.58153506628507,36.73108852420937]},"properties":{"ID":"140430000007","NAME":"沁县石板上水库","SOURCE":"Q2011","GDB_FROM_D":"2012-08-30T00:00:00.000Z","GDB_TO_DAT":"9999-01-01T00:00:00.000Z","TYPE_":0,"longtitude":0,"altitude":0,"type":"0","ORIG_FID":77}},
{"type":"Feature","geometry":{"type":"Point","coordinates":[112.68907875034205,36.749756780220935]},"properties":{"ID":"140430000008","NAME":"沁县西湖水库","SOURCE":"Q2011","GDB_FROM_D":"2012-08-30T00:00:00.000Z","GDB_TO_DAT":"9999-01-01T00:00:00.000Z","TYPE_":0,"longtitude":0,"altitude":0,"type":"0","ORIG_FID":78}},
{"type":"Feature","geometry":{"type":"Point","coordinates":[112.7834662046615,36.66981280007694]},"properties":{"ID":"140430000009","NAME":"沁县徐阳水库","SOURCE":"Q2011","GDB_FROM_D":"2012-08-30T00:00:00.000Z","GDB_TO_DAT":"9999-01-01T00:00:00.000Z","TYPE_":0,"longtitude":0,"altitude":0,"type":"0","ORIG_FID":79}},
{"type":"Feature","geometry":{"type":"Point","coordinates":[112.60136784621497,36.77172335660852]},"properties":{"ID":"140430000006","NAME":"沁县迎春水库","SOURCE":"Q2011","GDB_FROM_D":"2012-08-30T00:00:00.000Z","GDB_TO_DAT":"9999-01-01T00:00:00.000Z","TYPE_":0,"longtitude":0,"altitude":0,"type":"0","ORIG_FID":80}},
{"type":"Feature","geometry":{"type":"Point","coordinates":[111.14502562760121,39.0905533332936]},"properties":{"ID":"140931000002","NAME":"天桥水库","SOURCE":"Q2011","GDB_FROM_D":"2012-08-30T00:00:00.000Z","GDB_TO_DAT":"9999-01-01T00:00:00.000Z","TYPE_":0,"longtitude":0,"altitude":0,"type":"0","ORIG_FID":81}},
{"type":"Feature","geometry":{"type":"Point","coordinates":[114.07800926768738,40.32798405444477]},"properties":{"ID":"140222000001","NAME":"天镇县孤峰山水库","SOURCE":"Q2011","GDB_FROM_D":"2012-08-30T00:00:00.000Z","GDB_TO_DAT":"9999-01-01T00:00:00.000Z","TYPE_":0,"longtitude":0,"altitude":0,"type":"0","ORIG_FID":82}},
{"type":"Feature","geometry":{"type":"Point","coordinates":[111.21322875398161,35.06570587288088]},"properties":{"ID":"140828000009","NAME":"史家峪水库","SOURCE":"Q2011","GDB_FROM_D":"2012-08-30T00:00:00.000Z","GDB_TO_DAT":"9999-01-01T00:00:00.000Z","TYPE_":0,"longtitude":0,"altitude":0,"type":"0","ORIG_FID":83}},
{"type":"Feature","geometry":{"type":"Point","coordinates":[113.1065612910819,38.72141621633148]},"properties":{"ID":"140922000006","NAME":"田家岗水库","SOURCE":"Q2011","GDB_FROM_D":"2012-08-30T00:00:00.000Z","GDB_TO_DAT":"9999-01-01T00:00:00.000Z","TYPE_":0,"longtitude":0,"altitude":0,"type":"0","ORIG_FID":84}},
{"type":"Feature","geometry":{"type":"Point","coordinates":[112.85794272888768,39.013218505214994]},"properties":{"ID":"140923000008","NAME":"西茂河水库","SOURCE":"Q2011","GDB_FROM_D":"2012-08-30T00:00:00.000Z","GDB_TO_DAT":"9999-01-01T00:00:00.000Z","TYPE_":0,"longtitude":0,"altitude":0,"type":"0","ORIG_FID":85}},
{"type":"Feature","geometry":{"type":"Point","coordinates":[111.1659828754601,34.93156332227643]},"properties":{"ID":"140829000032","NAME":"西牛水库","SOURCE":"Q2011","GDB_FROM_D":"2012-08-30T00:00:00.000Z","GDB_TO_DAT":"9999-01-01T00:00:00.000Z","TYPE_":0,"longtitude":0,"altitude":0,"type":"0","ORIG_FID":86}},
{"type":"Feature","geometry":{"type":"Point","coordinates":[113.58459129535116,40.02928749759346]},"properties":{"ID":"140227000011","NAME":"西坪水库","SOURCE":"Q2011","GDB_FROM_D":"2012-08-30T00:00:00.000Z","GDB_TO_DAT":"9999-01-01T00:00:00.000Z","TYPE_":0,"longtitude":0,"altitude":0,"type":"0","ORIG_FID":87}},
{"type":"Feature","geometry":{"type":"Point","coordinates":[112.76301753041542,37.13543383312812]},"properties":{"ID":"140721000001","NAME":"西清秀水库","SOURCE":"Q2011","GDB_FROM_D":"2012-08-30T00:00:00.000Z","GDB_TO_DAT":"9999-01-01T00:00:00.000Z","TYPE_":0,"longtitude":0,"altitude":0,"type":"0","ORIG_FID":88}},
{"type":"Feature","geometry":{"type":"Point","coordinates":[112.59954981528813,38.717403689717976]},"properties":{"ID":"140981000007","NAME":"西茹庄水库","SOURCE":"Q2011","GDB_FROM_D":"2012-08-30T00:00:00.000Z","GDB_TO_DAT":"9999-01-01T00:00:00.000Z","TYPE_":0,"longtitude":0,"altitude":0,"type":"0","ORIG_FID":89}},
{"type":"Feature","geometry":{"type":"Point","coordinates":[111.23260699263,36.95795695418541]},"properties":{"ID":"141130000001","NAME":"西山水库","SOURCE":"Q2011","GDB_FROM_D":"2012-08-30T00:00:00.000Z","GDB_TO_DAT":"9999-01-01T00:00:00.000Z","TYPE_":0,"longtitude":0,"altitude":0,"type":"0","ORIG_FID":90}},
{"type":"Feature","geometry":{"type":"Point","coordinates":[112.89107250787738,36.37595060472642]},"properties":{"ID":"140424000024","NAME":"西洼水库","SOURCE":"Q2011","GDB_FROM_D":"2012-08-30T00:00:00.000Z","GDB_TO_DAT":"9999-01-01T00:00:00.000Z","TYPE_":0,"longtitude":0,"altitude":0,"type":"0","ORIG_FID":91}},
{"type":"Feature","geometry":{"type":"Point","coordinates":[113.41904953135963,39.66581587175514]},"properties":{"ID":"140225000011","NAME":"西窑水库","SOURCE":"Q2011","GDB_FROM_D":"2012-08-30T00:00:00.000Z","GDB_TO_DAT":"9999-01-01T00:00:00.000Z","TYPE_":0,"longtitude":0,"altitude":0,"type":"0","ORIG_FID":92}},
{"type":"Feature","geometry":{"type":"Point","coordinates":[111.74014932372971,35.669769460184085]},"properties":{"ID":"141022000006","NAME":"西尹水库","SOURCE":"Q2011","GDB_FROM_D":"2012-08-30T00:00:00.000Z","GDB_TO_DAT":"9999-01-01T00:00:00.000Z","TYPE_":0,"longtitude":0,"altitude":0,"type":"0","ORIG_FID":93}},
{"type":"Feature","geometry":{"type":"Point","coordinates":[110.70361141299811,36.855806000048005]},"properties":{"ID":"141032000001","NAME":"西峪水库","SOURCE":"Q2011","GDB_FROM_D":"2012-08-30T00:00:00.000Z","GDB_TO_DAT":"9999-01-01T00:00:00.000Z","TYPE_":0,"longtitude":0,"altitude":0,"type":"0","ORIG_FID":94}},
{"type":"Feature","geometry":{"type":"Point","coordinates":[112.05655307838728,37.523187210642426]},"properties":{"ID":"141121000002","NAME":"虎喊沟水库","SOURCE":"Q2011","GDB_FROM_D":"2012-08-30T00:00:00.000Z","GDB_TO_DAT":"9999-01-01T00:00:00.000Z","TYPE_":0,"longtitude":0,"altitude":0,"type":"0","ORIG_FID":95}},
{"type":"Feature","geometry":{"type":"Point","coordinates":[113.71471150374164,39.32471382427397]},"properties":{"ID":"140924000004","NAME":"虎山水库","SOURCE":"Q2011","GDB_FROM_D":"2012-08-30T00:00:00.000Z","GDB_TO_DAT":"9999-01-01T00:00:00.000Z","TYPE_":0,"longtitude":0,"altitude":0,"type":"0","ORIG_FID":96}},
{"type":"Feature","geometry":{"type":"Point","coordinates":[113.35659422542743,40.16288113465086]},"properties":{"ID":"140212000004","NAME":"花元屯水库","SOURCE":"Q2011","GDB_FROM_D":"2012-08-30T00:00:00.000Z","GDB_TO_DAT":"9999-01-01T00:00:00.000Z","TYPE_":0,"longtitude":0,"altitude":0,"type":"0","ORIG_FID":97}},
{"type":"Feature","geometry":{"type":"Point","coordinates":[112.86288749231852,35.50002362897571]},"properties":{"ID":"140502000001","NAME":"花园头水库","SOURCE":"Q2011","GDB_FROM_D":"2012-08-30T00:00:00.000Z","GDB_TO_DAT":"9999-01-01T00:00:00.000Z","TYPE_":0,"longtitude":0,"altitude":0,"type":"0","ORIG_FID":98}},
{"type":"Feature","geometry":{"type":"Point","coordinates":[113.63030186711218,39.69984747652405]},"properties":{"ID":"140225000010","NAME":"花町水库","SOURCE":"Q2011","GDB_FROM_D":"2012-08-30T00:00:00.000Z","GDB_TO_DAT":"9999-01-01T00:00:00.000Z","TYPE_":0,"longtitude":0,"altitude":0,"type":"0","ORIG_FID":99}},
{"type":"Feature","geometry":{"type":"Point","coordinates":[113.63747528340693,39.703642830356486]},"properties":{"ID":"140225000010","NAME":"花町水库","SOURCE":"Q2011","GDB_FROM_D":"2012-08-30T00:00:00.000Z","GDB_TO_DAT":"9999-01-01T00:00:00.000Z","TYPE_":0,"longtitude":0,"altitude":0,"type":"0","ORIG_FID":100}},
{"type":"Feature","geometry":{"type":"Point","coordinates":[114.16068121011686,39.537476402202124]},"properties":{"ID":"140224000001","NAME":"华山水库","SOURCE":"Q2011","GDB_FROM_D":"2012-08-30T00:00:00.000Z","GDB_TO_DAT":"9999-01-01T00:00:00.000Z","TYPE_":0,"longtitude":0,"altitude":0,"type":"0","ORIG_FID":101}},
{"type":"Feature","geometry":{"type":"Point","coordinates":[110.89688184204539,35.69144547426549]},"properties":{"ID":"140824000002","NAME":"黄华峪水库","SOURCE":"Q2011","GDB_FROM_D":"2012-08-30T00:00:00.000Z","GDB_TO_DAT":"9999-01-01T00:00:00.000Z","TYPE_":0,"longtitude":0,"altitude":0,"type":"0","ORIG_FID":102}},
{"type":"Feature","geometry":{"type":"Point","coordinates":[111.62706972418765,38.35620990606664]},"properties":{"ID":"141127000003","NAME":"黄岭沟水库","SOURCE":"Q2011","GDB_FROM_D":"2012-08-30T00:00:00.000Z","GDB_TO_DAT":"9999-01-01T00:00:00.000Z","TYPE_":0,"longtitude":0,"altitude":0,"type":"0","ORIG_FID":103}},
{"type":"Feature","geometry":{"type":"Point","coordinates":[113.66692177405092,37.83245033039432]},"properties":{"ID":"140321000016","NAME":"黄龙蟠水库","SOURCE":"Q2011","GDB_FROM_D":"2012-08-30T00:00:00.000Z","GDB_TO_DAT":"9999-01-01T00:00:00.000Z","TYPE_":0,"longtitude":0,"altitude":0,"type":"0","ORIG_FID":104}},
{"type":"Feature","geometry":{"type":"Point","coordinates":[113.74162286497663,39.78140643378575]},"properties":{"ID":"140225000008","NAME":"西庄水库","SOURCE":"Q2011","GDB_FROM_D":"2012-08-30T00:00:00.000Z","GDB_TO_DAT":"9999-01-01T00:00:00.000Z","TYPE_":0,"longtitude":0,"altitude":0,"type":"0","ORIG_FID":105}},
{"type":"Feature","geometry":{"type":"Point","coordinates":[113.09576277004096,37.031905409567]},"properties":{"ID":"140721000005","NAME":"下赤土水库","SOURCE":"Q2011","GDB_FROM_D":"2012-08-30T00:00:00.000Z","GDB_TO_DAT":"9999-01-01T00:00:00.000Z","TYPE_":0,"longtitude":0,"altitude":0,"type":"0","ORIG_FID":106}},
{"type":"Feature","geometry":{"type":"Point","coordinates":[113.78726006232883,37.957528778167045]},"properties":{"ID":"140321000005","NAME":"下董寨水库","SOURCE":"Q2011","GDB_FROM_D":"2012-08-30T00:00:00.000Z","GDB_TO_DAT":"9999-01-01T00:00:00.000Z","TYPE_":0,"longtitude":0,"altitude":0,"type":"0","ORIG_FID":107}},
{"type":"Feature","geometry":{"type":"Point","coordinates":[114.30951461650093,39.75233947396902]},"properties":{"ID":"140223000006","NAME":"下河湾水库","SOURCE":"Q2011","GDB_FROM_D":"2012-08-30T00:00:00.000Z","GDB_TO_DAT":"9999-01-01T00:00:00.000Z","TYPE_":0,"longtitude":0,"altitude":0,"type":"0","ORIG_FID":108}},
{"type":"Feature","geometry":{"type":"Point","coordinates":[111.68120021449182,36.31185091653997]},"properties":{"ID":"141024000005","NAME":"下纪落水库","SOURCE":"Q2011","GDB_FROM_D":"2012-08-30T00:00:00.000Z","GDB_TO_DAT":"9999-01-01T00:00:00.000Z","TYPE_":0,"longtitude":0,"altitude":0,"type":"0","ORIG_FID":109}},
{"type":"Feature","geometry":{"type":"Point","coordinates":[112.10897294782814,37.0883554134089]},"properties":{"ID":"140781000002","NAME":"下梁水库","SOURCE":"Q2011","GDB_FROM_D":"2012-08-30T00:00:00.000Z","GDB_TO_DAT":"9999-01-01T00:00:00.000Z","TYPE_":0,"longtitude":0,"altitude":0,"type":"0","ORIG_FID":110}},
{"type":"Feature","geometry":{"type":"Point","coordinates":[113.92668418987463,40.05425716048272]},"properties":{"ID":"140221000017","NAME":"下马涧水库","SOURCE":"Q2011","GDB_FROM_D":"2012-08-30T00:00:00.000Z","GDB_TO_DAT":"9999-01-01T00:00:00.000Z","TYPE_":0,"longtitude":0,"altitude":0,"type":"0","ORIG_FID":111}},
{"type":"Feature","geometry":{"type":"Point","coordinates":[113.63911804864934,37.67642588236859]},"properties":{"ID":"140321000009","NAME":"下马郡头水库","SOURCE":"Q2011","GDB_FROM_D":"2012-08-30T00:00:00.000Z","GDB_TO_DAT":"9999-01-01T00:00:00.000Z","TYPE_":0,"longtitude":0,"altitude":0,"type":"0","ORIG_FID":112}},
{"type":"Feature","geometry":{"type":"Point","coordinates":[111.13240455990992,34.95649756580547]},"properties":{"ID":"140829000016","NAME":"下牛水库","SOURCE":"Q2011","GDB_FROM_D":"2012-08-30T00:00:00.000Z","GDB_TO_DAT":"9999-01-01T00:00:00.000Z","TYPE_":0,"longtitude":0,"altitude":0,"type":"0","ORIG_FID":113}},
{"type":"Feature","geometry":{"type":"Point","coordinates":[113.61520606974398,40.12930607275452]},"properties":{"ID":"140227000009","NAME":"下羊落水库","SOURCE":"Q2011","GDB_FROM_D":"2012-08-30T00:00:00.000Z","GDB_TO_DAT":"9999-01-01T00:00:00.000Z","TYPE_":0,"longtitude":0,"altitude":0,"type":"0","ORIG_FID":114}},
{"type":"Feature","geometry":{"type":"Point","coordinates":[112.77796207358375,37.81162008837076]},"properties":{"ID":"140702000001","NAME":"田家湾水库","SOURCE":"Q2011","GDB_FROM_D":"2012-08-30T00:00:00.000Z","GDB_TO_DAT":"9999-01-01T00:00:00.000Z","TYPE_":0,"longtitude":0,"altitude":0,"type":"0","ORIG_FID":115}},
{"type":"Feature","geometry":{"type":"Point","coordinates":[112.80848055506067,37.433552540558246]},"properties":{"ID":"140726000009","NAME":"田受沟水库","SOURCE":"Q2011","GDB_FROM_D":"2012-08-30T00:00:00.000Z","GDB_TO_DAT":"9999-01-01T00:00:00.000Z","TYPE_":0,"longtitude":0,"altitude":0,"type":"0","ORIG_FID":116}},
{"type":"Feature","geometry":{"type":"Point","coordinates":[113.64874666601573,39.718611600068506]},"properties":{"ID":"140225000003","NAME":"土桥铺水库","SOURCE":"Q2011","GDB_FROM_D":"2012-08-30T00:00:00.000Z","GDB_TO_DAT":"9999-01-01T00:00:00.000Z","TYPE_":0,"longtitude":0,"altitude":0,"type":"0","ORIG_FID":123}},
{"type":"Feature","geometry":{"type":"Point","coordinates":[111.15717773455476,34.96442683102353]},"properties":{"ID":"140829000031","NAME":"团结水库","SOURCE":"Q2011","GDB_FROM_D":"2012-08-30T00:00:00.000Z","GDB_TO_DAT":"9999-01-01T00:00:00.000Z","TYPE_":0,"longtitude":0,"altitude":0,"type":"0","ORIG_FID":124}},
{"type":"Feature","geometry":{"type":"Point","coordinates":[112.53947957721422,38.76070353484709]},"properties":{"ID":"140981000005","NAME":"屯瓦水库","SOURCE":"Q2011","GDB_FROM_D":"2012-08-30T00:00:00.000Z","GDB_TO_DAT":"9999-01-01T00:00:00.000Z","TYPE_":0,"longtitude":0,"altitude":0,"type":"0","ORIG_FID":125}},
{"type":"Feature","geometry":{"type":"Point","coordinates":[112.91743854425461,35.65593874673149]},"properties":{"ID":"140525000021","NAME":"西张村水库","SOURCE":"Q2011","GDB_FROM_D":"2012-08-30T00:00:00.000Z","GDB_TO_DAT":"9999-01-01T00:00:00.000Z","TYPE_":0,"longtitude":0,"altitude":0,"type":"0","ORIG_FID":126}},
{"type":"Feature","geometry":{"type":"Point","coordinates":[113.20497601185293,35.74926939098384]},"properties":{"ID":"140524000006","NAME":"窄相水库","SOURCE":"Q2011","GDB_FROM_D":"2012-08-30T00:00:00.000Z","GDB_TO_DAT":"9999-01-01T00:00:00.000Z","TYPE_":0,"longtitude":0,"altitude":0,"type":"0","ORIG_FID":127}},
{"type":"Feature","geometry":{"type":"Point","coordinates":[112.93016387537207,38.077723991252235]},"properties":{"ID":"140122000003","NAME":"寨沟水库","SOURCE":"Q2011","GDB_FROM_D":"2012-08-30T00:00:00.000Z","GDB_TO_DAT":"9999-01-01T00:00:00.000Z","TYPE_":0,"longtitude":0,"altitude":0,"type":"0","ORIG_FID":128}},
{"type":"Feature","geometry":{"type":"Point","coordinates":[113.07844660607188,39.17103987812702]},"properties":{"ID":"140923000005","NAME":"寨沟水库","SOURCE":"Q2011","GDB_FROM_D":"2012-08-30T00:00:00.000Z","GDB_TO_DAT":"9999-01-01T00:00:00.000Z","TYPE_":0,"longtitude":0,"altitude":0,"type":"0","ORIG_FID":129}},
{"type":"Feature","geometry":{"type":"Point","coordinates":[112.81357055909243,35.530356870928244]},"properties":{"ID":"140502000004","NAME":"战备水库","SOURCE":"Q2011","GDB_FROM_D":"2012-08-30T00:00:00.000Z","GDB_TO_DAT":"9999-01-01T00:00:00.000Z","TYPE_":0,"longtitude":0,"altitude":0,"type":"0","ORIG_FID":130}},
{"type":"Feature","geometry":{"type":"Point","coordinates":[112.75308802295127,35.74789017833533]},"properties":{"ID":"140581000001","NAME":"章庄水库","SOURCE":"Q2011","GDB_FROM_D":"2012-08-30T00:00:00.000Z","GDB_TO_DAT":"9999-01-01T00:00:00.000Z","TYPE_":0,"longtitude":0,"altitude":0,"type":"0","ORIG_FID":131}},
{"type":"Feature","geometry":{"type":"Point","coordinates":[112.65089429266321,38.075673022854204]},"properties":{"ID":"140122000010","NAME":"北留水库","SOURCE":"Q2011","GDB_FROM_D":"2012-08-30T00:00:00.000Z","GDB_TO_DAT":"9999-01-01T00:00:00.000Z","TYPE_":0,"longtitude":0,"altitude":0,"type":"0","ORIG_FID":132}},
{"type":"Feature","geometry":{"type":"Point","coordinates":[113.63388567179634,40.01320166379837]},"properties":{"ID":"140227000004","NAME":"北石山水库","SOURCE":"Q2011","GDB_FROM_D":"2012-08-30T00:00:00.000Z","GDB_TO_DAT":"9999-01-01T00:00:00.000Z","TYPE_":0,"longtitude":0,"altitude":0,"type":"0","ORIG_FID":133}},
{"type":"Feature","geometry":{"type":"Point","coordinates":[113.07500901528799,35.941760139084174]},"properties":{"ID":"140421000002","NAME":"北宋水库","SOURCE":"Q2011","GDB_FROM_D":"2012-08-30T00:00:00.000Z","GDB_TO_DAT":"9999-01-01T00:00:00.000Z","TYPE_":0,"longtitude":0,"altitude":0,"type":"0","ORIG_FID":134}},
{"type":"Feature","geometry":{"type":"Point","coordinates":[111.53022269717475,35.481148118626216]},"properties":{"ID":"140826000012","NAME":"北杨水库","SOURCE":"Q2011","GDB_FROM_D":"2012-08-30T00:00:00.000Z","GDB_TO_DAT":"9999-01-01T00:00:00.000Z","TYPE_":0,"longtitude":0,"altitude":0,"type":"0","ORIG_FID":135}},
{"type":"Feature","geometry":{"type":"Point","coordinates":[112.36180191853202,37.619862719390596]},"properties":{"ID":"140121000001","NAME":"北营水库","SOURCE":"Q2011","GDB_FROM_D":"2012-08-30T00:00:00.000Z","GDB_TO_DAT":"9999-01-01T00:00:00.000Z","TYPE_":0,"longtitude":0,"altitude":0,"type":"0","ORIG_FID":136}},
{"type":"Feature","geometry":{"type":"Point","coordinates":[113.45645103607053,40.0416362081592]},"properties":{"ID":"140227000014","NAME":"倍加造水库","SOURCE":"Q2011","GDB_FROM_D":"2012-08-30T00:00:00.000Z","GDB_TO_DAT":"9999-01-01T00:00:00.000Z","TYPE_":0,"longtitude":0,"altitude":0,"type":"0","ORIG_FID":137}},
{"type":"Feature","geometry":{"type":"Point","coordinates":[113.37126014331031,36.30868061373769]},"properties":{"ID":"140481000001","NAME":"黄牛蹄水库","SOURCE":"Q2011","GDB_FROM_D":"2012-08-30T00:00:00.000Z","GDB_TO_DAT":"9999-01-01T00:00:00.000Z","TYPE_":0,"longtitude":0,"altitude":0,"type":"0","ORIG_FID":138}},
{"type":"Feature","geometry":{"type":"Point","coordinates":[113.50826936421345,38.455735238061436]},"properties":{"ID":"140322000001","NAME":"黄树岩水库","SOURCE":"Q2011","GDB_FROM_D":"2012-08-30T00:00:00.000Z","GDB_TO_DAT":"9999-01-01T00:00:00.000Z","TYPE_":0,"longtitude":0,"altitude":0,"type":"0","ORIG_FID":139}},
{"type":"Feature","geometry":{"type":"Point","coordinates":[112.9610671126307,36.43088777517095]},"properties":{"ID":"140423000004","NAME":"灰垴水库","SOURCE":"Q2011","GDB_FROM_D":"2012-08-30T00:00:00.000Z","GDB_TO_DAT":"9999-01-01T00:00:00.000Z","TYPE_":0,"longtitude":0,"altitude":0,"type":"0","ORIG_FID":140}},
{"type":"Feature","geometry":{"type":"Point","coordinates":[113.44260064052622,35.53194658133939]},"properties":{"ID":"140524000021","NAME":"汇源水库","SOURCE":"Q2011","GDB_FROM_D":"2012-08-30T00:00:00.000Z","GDB_TO_DAT":"9999-01-01T00:00:00.000Z","TYPE_":0,"longtitude":0,"altitude":0,"type":"0","ORIG_FID":141}},
{"type":"Feature","geometry":{"type":"Point","coordinates":[111.08557821088235,34.92026719242345]},"properties":{"ID":"140829000002","NAME":"鸡弯水库","SOURCE":"Q2011","GDB_FROM_D":"2012-08-30T00:00:00.000Z","GDB_TO_DAT":"9999-01-01T00:00:00.000Z","TYPE_":0,"longtitude":0,"altitude":0,"type":"0","ORIG_FID":142}},
{"type":"Feature","geometry":{"type":"Point","coordinates":[113.6259337848599,39.93535017478253]},"properties":{"ID":"140227000012","NAME":"吉家会水库","SOURCE":"Q2011","GDB_FROM_D":"2012-08-30T00:00:00.000Z","GDB_TO_DAT":"9999-01-01T00:00:00.000Z","TYPE_":0,"longtitude":0,"altitude":0,"type":"0","ORIG_FID":143}},
{"type":"Feature","geometry":{"type":"Point","coordinates":[112.93360084645546,36.57949982563149]},"properties":{"ID":"140423000008","NAME":"冀家岭水库","SOURCE":"Q2011","GDB_FROM_D":"2012-08-30T00:00:00.000Z","GDB_TO_DAT":"9999-01-01T00:00:00.000Z","TYPE_":0,"longtitude":0,"altitude":0,"type":"0","ORIG_FID":144}},
{"type":"Feature","geometry":{"type":"Point","coordinates":[111.3120883950501,34.88512722019296]},"properties":{"ID":"140829000033","NAME":"计王水库","SOURCE":"Q2011","GDB_FROM_D":"2012-08-30T00:00:00.000Z","GDB_TO_DAT":"9999-01-01T00:00:00.000Z","TYPE_":0,"longtitude":0,"altitude":0,"type":"0","ORIG_FID":145}},
{"type":"Feature","geometry":{"type":"Point","coordinates":[113.74475134322503,40.17156238642366]},"properties":{"ID":"140221000023","NAME":"贾丰水库","SOURCE":"Q2011","GDB_FROM_D":"2012-08-30T00:00:00.000Z","GDB_TO_DAT":"9999-01-01T00:00:00.000Z","TYPE_":0,"longtitude":0,"altitude":0,"type":"0","ORIG_FID":146}},
{"type":"Feature","geometry":{"type":"Point","coordinates":[113.54339667047529,39.653631975848356]},"properties":{"ID":"140225000005","NAME":"贾庄旁引库","SOURCE":"Q2011","GDB_FROM_D":"2012-08-30T00:00:00.000Z","GDB_TO_DAT":"9999-01-01T00:00:00.000Z","TYPE_":0,"longtitude":0,"altitude":0,"type":"0","ORIG_FID":147}},
{"type":"Feature","geometry":{"type":"Point","coordinates":[112.97799304502347,36.5179954189171]},"properties":{"ID":"140423000006","NAME":"下峪水库","SOURCE":"Q2011","GDB_FROM_D":"2012-08-30T00:00:00.000Z","GDB_TO_DAT":"9999-01-01T00:00:00.000Z","TYPE_":0,"longtitude":0,"altitude":0,"type":"0","ORIG_FID":148}},
{"type":"Feature","geometry":{"type":"Point","coordinates":[111.18225659047997,36.63937292926202]},"properties":{"ID":"141031000002","NAME":"下庄水库","SOURCE":"Q2011","GDB_FROM_D":"2012-08-30T00:00:00.000Z","GDB_TO_DAT":"9999-01-01T00:00:00.000Z","TYPE_":0,"longtitude":0,"altitude":0,"type":"0","ORIG_FID":149}},
{"type":"Feature","geometry":{"type":"Point","coordinates":[112.61578283385866,39.19076836806417]},"properties":{"ID":"140602000006","NAME":"下町水库","SOURCE":"Q2011","GDB_FROM_D":"2012-08-30T00:00:00.000Z","GDB_TO_DAT":"9999-01-01T00:00:00.000Z","TYPE_":0,"longtitude":0,"altitude":0,"type":"0","ORIG_FID":150}},
{"type":"Feature","geometry":{"type":"Point","coordinates":[112.92297557832256,36.518865039264064]},"properties":{"ID":"140423000005","NAME":"夏店水库","SOURCE":"Q2011","GDB_FROM_D":"2012-08-30T00:00:00.000Z","GDB_TO_DAT":"9999-01-01T00:00:00.000Z","TYPE_":0,"longtitude":0,"altitude":0,"type":"0","ORIG_FID":151}},
{"type":"Feature","geometry":{"type":"Point","coordinates":[113.6086771972642,37.733927325370935]},"properties":{"ID":"140321000011","NAME":"夏庄水库","SOURCE":"Q2011","GDB_FROM_D":"2012-08-30T00:00:00.000Z","GDB_TO_DAT":"9999-01-01T00:00:00.000Z","TYPE_":0,"longtitude":0,"altitude":0,"type":"0","ORIG_FID":152}},
{"type":"Feature","geometry":{"type":"Point","coordinates":[112.57274697962318,37.35382919682238]},"properties":{"ID":"140726000006","NAME":"咸阳河水库","SOURCE":"Q2011","GDB_FROM_D":"2012-08-30T00:00:00.000Z","GDB_TO_DAT":"9999-01-01T00:00:00.000Z","TYPE_":0,"longtitude":0,"altitude":0,"type":"0","ORIG_FID":153}},
{"type":"Feature","geometry":{"type":"Point","coordinates":[113.08930972048117,39.771493614543566]},"properties":{"ID":"140624000019","NAME":"县万金桥水库","SOURCE":"Q2011","GDB_FROM_D":"2012-08-30T00:00:00.000Z","GDB_TO_DAT":"9999-01-01T00:00:00.000Z","TYPE_":0,"longtitude":0,"altitude":0,"type":"0","ORIG_FID":154}},
{"type":"Feature","geometry":{"type":"Point","coordinates":[111.07634677451738,34.898347794832134]},"properties":{"ID":"140829000003","NAME":"向东水库","SOURCE":"Q2011","GDB_FROM_D":"2012-08-30T00:00:00.000Z","GDB_TO_DAT":"9999-01-01T00:00:00.000Z","TYPE_":0,"longtitude":0,"altitude":0,"type":"0","ORIG_FID":155}},
{"type":"Feature","geometry":{"type":"Point","coordinates":[111.43982048426236,39.61340562104048]},"properties":{"ID":"140932000001","NAME":"万家寨水利枢纽-水库工程","SOURCE":"Q2011","GDB_FROM_D":"2012-08-30T00:00:00.000Z","GDB_TO_DAT":"9999-01-01T00:00:00.000Z","TYPE_":0,"longtitude":0,"altitude":0,"type":"0","ORIG_FID":156}},
{"type":"Feature","geometry":{"type":"Point","coordinates":[112.73107316011757,35.68286287657604]},"properties":{"ID":"140525000001","NAME":"万里水库","SOURCE":"Q2011","GDB_FROM_D":"2012-08-30T00:00:00.000Z","GDB_TO_DAT":"9999-01-01T00:00:00.000Z","TYPE_":0,"longtitude":0,"altitude":0,"type":"0","ORIG_FID":157}},
{"type":"Feature","geometry":{"type":"Point","coordinates":[113.00945002022651,38.756216162921184]},"properties":{"ID":"140981000017","NAME":"王北尧水库","SOURCE":"Q2011","GDB_FROM_D":"2012-08-30T00:00:00.000Z","GDB_TO_DAT":"9999-01-01T00:00:00.000Z","TYPE_":0,"longtitude":0,"altitude":0,"type":"0","ORIG_FID":158}},
{"type":"Feature","geometry":{"type":"Point","coordinates":[112.63051301867523,36.29571318674945]},"properties":{"ID":"140424000038","NAME":"雁落坪水库","SOURCE":"Q2011","GDB_FROM_D":"2012-08-30T00:00:00.000Z","GDB_TO_DAT":"9999-01-01T00:00:00.000Z","TYPE_":0,"longtitude":0,"altitude":0,"type":"0","ORIG_FID":159}},
{"type":"Feature","geometry":{"type":"Point","coordinates":[111.96250476782328,35.7263975620195]},"properties":{"ID":"141022000009","NAME":"杨家后水库","SOURCE":"Q2011","GDB_FROM_D":"2012-08-30T00:00:00.000Z","GDB_TO_DAT":"9999-01-01T00:00:00.000Z","TYPE_":0,"longtitude":0,"altitude":0,"type":"0","ORIG_FID":160}},
{"type":"Feature","geometry":{"type":"Point","coordinates":[113.62669998164287,37.4583080717513]},"properties":{"ID":"140724000017","NAME":"杨家坡水库","SOURCE":"Q2011","GDB_FROM_D":"2012-08-30T00:00:00.000Z","GDB_TO_DAT":"9999-01-01T00:00:00.000Z","TYPE_":0,"longtitude":0,"altitude":0,"type":"0","ORIG_FID":161}},
{"type":"Feature","geometry":{"type":"Point","coordinates":[112.8145340343298,36.289909566954016]},"properties":{"ID":"140424000010","NAME":"杨家湾水库","SOURCE":"Q2011","GDB_FROM_D":"2012-08-30T00:00:00.000Z","GDB_TO_DAT":"9999-01-01T00:00:00.000Z","TYPE_":0,"longtitude":0,"altitude":0,"type":"0","ORIG_FID":162}},
{"type":"Feature","geometry":{"type":"Point","coordinates":[114.28426361403118,39.74384291326744]},"properties":{"ID":"140223000004","NAME":"枕头河水库","SOURCE":"Q2011","GDB_FROM_D":"2012-08-30T00:00:00.000Z","GDB_TO_DAT":"9999-01-01T00:00:00.000Z","TYPE_":0,"longtitude":0,"altitude":0,"type":"0","ORIG_FID":163}},
{"type":"Feature","geometry":{"type":"Point","coordinates":[113.20921495100944,40.22910867128447]},"properties":{"ID":"140212000007","NAME":"镇和户水库","SOURCE":"Q2011","GDB_FROM_D":"2012-08-30T00:00:00.000Z","GDB_TO_DAT":"9999-01-01T00:00:00.000Z","TYPE_":0,"longtitude":0,"altitude":0,"type":"0","ORIG_FID":164}},
{"type":"Feature","geometry":{"type":"Point","coordinates":[113.85588725340881,40.46169715000727]},"properties":{"ID":"140221000001","NAME":"镇门堡水库","SOURCE":"Q2011","GDB_FROM_D":"2012-08-30T00:00:00.000Z","GDB_TO_DAT":"9999-01-01T00:00:00.000Z","TYPE_":0,"longtitude":0,"altitude":0,"type":"0","ORIG_FID":165}},
{"type":"Feature","geometry":{"type":"Point","coordinates":[113.0863087745978,39.172754361570384]},"properties":{"ID":"140923000004","NAME":"正沟水库","SOURCE":"Q2011","GDB_FROM_D":"2012-08-30T00:00:00.000Z","GDB_TO_DAT":"9999-01-01T00:00:00.000Z","TYPE_":0,"longtitude":0,"altitude":0,"type":"0","ORIG_FID":166}},
{"type":"Feature","geometry":{"type":"Point","coordinates":[111.1321816090311,34.889745897636]},"properties":{"ID":"140829000017","NAME":"郑沟水库","SOURCE":"Q2011","GDB_FROM_D":"2012-08-30T00:00:00.000Z","GDB_TO_DAT":"9999-01-01T00:00:00.000Z","TYPE_":0,"longtitude":0,"altitude":0,"type":"0","ORIG_FID":167}},
{"type":"Feature","geometry":{"type":"Point","coordinates":[113.2206006815102,37.974485349786335]},"properties":{"ID":"140725000003","NAME":"郑家庄水库","SOURCE":"Q2011","GDB_FROM_D":"2012-08-30T00:00:00.000Z","GDB_TO_DAT":"9999-01-01T00:00:00.000Z","TYPE_":0,"longtitude":0,"altitude":0,"type":"0","ORIG_FID":168}},
{"type":"Feature","geometry":{"type":"Point","coordinates":[112.44589256830744,36.51164475664087]},"properties":{"ID":"140431000002","NAME":"支角水库","SOURCE":"Q2011","GDB_FROM_D":"2012-08-30T00:00:00.000Z","GDB_TO_DAT":"9999-01-01T00:00:00.000Z","TYPE_":0,"longtitude":0,"altitude":0,"type":"0","ORIG_FID":169}},
{"type":"Feature","geometry":{"type":"Point","coordinates":[114.25165748378835,39.68247611662799]},"properties":{"ID":"140223000001","NAME":"直峪水库","SOURCE":"Q2011","GDB_FROM_D":"2012-08-30T00:00:00.000Z","GDB_TO_DAT":"9999-01-01T00:00:00.000Z","TYPE_":0,"longtitude":0,"altitude":0,"type":"0","ORIG_FID":170}},
{"type":"Feature","geometry":{"type":"Point","coordinates":[112.80562590091508,36.40388937759026]},"properties":{"ID":"140424000036","NAME":"贾庄水库","SOURCE":"Q2011","GDB_FROM_D":"2012-08-30T00:00:00.000Z","GDB_TO_DAT":"9999-01-01T00:00:00.000Z","TYPE_":0,"longtitude":0,"altitude":0,"type":"0","ORIG_FID":171}},
{"type":"Feature","geometry":{"type":"Point","coordinates":[113.58991497460794,39.720951615579224]},"properties":{"ID":"140225000006","NAME":"姜家沟水库","SOURCE":"Q2011","GDB_FROM_D":"2012-08-30T00:00:00.000Z","GDB_TO_DAT":"9999-01-01T00:00:00.000Z","TYPE_":0,"longtitude":0,"altitude":0,"type":"0","ORIG_FID":172}},
{"type":"Feature","geometry":{"type":"Point","coordinates":[112.99823892969916,38.689904973710696]},"properties":{"ID":"140981000018","NAME":"将军山水库","SOURCE":"Q2011","GDB_FROM_D":"2012-08-30T00:00:00.000Z","GDB_TO_DAT":"9999-01-01T00:00:00.000Z","TYPE_":0,"longtitude":0,"altitude":0,"type":"0","ORIG_FID":173}},
{"type":"Feature","geometry":{"type":"Point","coordinates":[111.3388730261913,34.85725227804097]},"properties":{"ID":"140829000025","NAME":"将勿水库","SOURCE":"Q2011","GDB_FROM_D":"2012-08-30T00:00:00.000Z","GDB_TO_DAT":"9999-01-01T00:00:00.000Z","TYPE_":0,"longtitude":0,"altitude":0,"type":"0","ORIG_FID":174}},
{"type":"Feature","geometry":{"type":"Point","coordinates":[113.86212271396259,39.99467410946281]},"properties":{"ID":"140221000019","NAME":"讲理二库","SOURCE":"Q2011","GDB_FROM_D":"2012-08-30T00:00:00.000Z","GDB_TO_DAT":"9999-01-01T00:00:00.000Z","TYPE_":0,"longtitude":0,"altitude":0,"type":"0","ORIG_FID":175}},
{"type":"Feature","geometry":{"type":"Point","coordinates":[113.85873433608911,39.99672335352762]},"properties":{"ID":"140221000018","NAME":"讲理一库","SOURCE":"Q2011","GDB_FROM_D":"2012-08-30T00:00:00.000Z","GDB_TO_DAT":"9999-01-01T00:00:00.000Z","TYPE_":0,"longtitude":0,"altitude":0,"type":"0","ORIG_FID":176}},
{"type":"Feature","geometry":{"type":"Point","coordinates":[112.11311506861804,37.60935763913003]},"properties":{"ID":"141122000004","NAME":"交城县磁窑河西沟水库","SOURCE":"Q2011","GDB_FROM_D":"2012-08-30T00:00:00.000Z","GDB_TO_DAT":"9999-01-01T00:00:00.000Z","TYPE_":0,"longtitude":0,"altitude":0,"type":"0","ORIG_FID":178}},
{"type":"Feature","geometry":{"type":"Point","coordinates":[112.10885860572213,37.579101545147395]},"properties":{"ID":"141122000002","NAME":"交城县瓦窑河水库","SOURCE":"Q2011","GDB_FROM_D":"2012-08-30T00:00:00.000Z","GDB_TO_DAT":"9999-01-01T00:00:00.000Z","TYPE_":0,"longtitude":0,"altitude":0,"type":"0","ORIG_FID":179}},
{"type":"Feature","geometry":{"type":"Point","coordinates":[111.80117915715542,35.19984558852964]},"properties":{"ID":"140827000004","NAME":"小北沟水库","SOURCE":"Q2011","GDB_FROM_D":"2012-08-30T00:00:00.000Z","GDB_TO_DAT":"9999-01-01T00:00:00.000Z","TYPE_":0,"longtitude":0,"altitude":0,"type":"0","ORIG_FID":180}},
{"type":"Feature","geometry":{"type":"Point","coordinates":[112.59324323957705,35.46015632249872]},"properties":{"ID":"140522000017","NAME":"小沟水库","SOURCE":"Q2011","GDB_FROM_D":"2012-08-30T00:00:00.000Z","GDB_TO_DAT":"9999-01-01T00:00:00.000Z","TYPE_":0,"longtitude":0,"altitude":0,"type":"0","ORIG_FID":181}},
{"type":"Feature","geometry":{"type":"Point","coordinates":[111.80144038166173,35.96620603305037]},"properties":{"ID":"141027000002","NAME":"小郭水库","SOURCE":"Q2011","GDB_FROM_D":"2012-08-30T00:00:00.000Z","GDB_TO_DAT":"9999-01-01T00:00:00.000Z","TYPE_":0,"longtitude":0,"altitude":0,"type":"0","ORIG_FID":182}},
{"type":"Feature","geometry":{"type":"Point","coordinates":[112.744721468243,37.457515609681224]},"properties":{"ID":"140726000004","NAME":"小河水库","SOURCE":"Q2011","GDB_FROM_D":"2012-08-30T00:00:00.000Z","GDB_TO_DAT":"9999-01-01T00:00:00.000Z","TYPE_":0,"longtitude":0,"altitude":0,"type":"0","ORIG_FID":183}},
{"type":"Feature","geometry":{"type":"Point","coordinates":[111.43076216615954,35.31809762145807]},"properties":{"ID":"140823000002","NAME":"小涧河水库","SOURCE":"Q2011","GDB_FROM_D":"2012-08-30T00:00:00.000Z","GDB_TO_DAT":"9999-01-01T00:00:00.000Z","TYPE_":0,"longtitude":0,"altitude":0,"type":"0","ORIG_FID":184}},
{"type":"Feature","geometry":{"type":"Point","coordinates":[113.46991354895995,35.67655778686399]},"properties":{"ID":"140524000018","NAME":"小磨河水库","SOURCE":"Q2011","GDB_FROM_D":"2012-08-30T00:00:00.000Z","GDB_TO_DAT":"9999-01-01T00:00:00.000Z","TYPE_":0,"longtitude":0,"altitude":0,"type":"0","ORIG_FID":185}},
{"type":"Feature","geometry":{"type":"Point","coordinates":[111.74689677169816,37.040243907559386]},"properties":{"ID":"141181000003","NAME":"孝义市东安生水库","SOURCE":"Q2011","GDB_FROM_D":"2012-08-30T00:00:00.000Z","GDB_TO_DAT":"9999-01-01T00:00:00.000Z","TYPE_":0,"longtitude":0,"altitude":0,"type":"0","ORIG_FID":186}},
{"type":"Feature","geometry":{"type":"Point","coordinates":[111.68712746281012,37.0889495398689]},"properties":{"ID":"141181000002","NAME":"孝义市梁家垣水库","SOURCE":"Q2011","GDB_FROM_D":"2012-08-30T00:00:00.000Z","GDB_TO_DAT":"9999-01-01T00:00:00.000Z","TYPE_":0,"longtitude":0,"altitude":0,"type":"0","ORIG_FID":187}},
{"type":"Feature","geometry":{"type":"Point","coordinates":[111.36111911196475,35.44320358788619]},"properties":{"ID":"140823000003","NAME":"杨家园水库","SOURCE":"Q2011","GDB_FROM_D":"2012-08-30T00:00:00.000Z","GDB_TO_DAT":"9999-01-01T00:00:00.000Z","TYPE_":0,"longtitude":0,"altitude":0,"type":"0","ORIG_FID":188}},
{"type":"Feature","geometry":{"type":"Point","coordinates":[111.91072781910027,36.561296771749]},"properties":{"ID":"141082000001","NAME":"杨家庄水库","SOURCE":"Q2011","GDB_FROM_D":"2012-08-30T00:00:00.000Z","GDB_TO_DAT":"9999-01-01T00:00:00.000Z","TYPE_":0,"longtitude":0,"altitude":0,"type":"0","ORIG_FID":189}},
{"type":"Feature","geometry":{"type":"Point","coordinates":[112.40797839806721,37.23793196324452]},"properties":{"ID":"140727000002","NAME":"杨庄水库","SOURCE":"Q2011","GDB_FROM_D":"2012-08-30T00:00:00.000Z","GDB_TO_DAT":"9999-01-01T00:00:00.000Z","TYPE_":0,"longtitude":0,"altitude":0,"type":"0","ORIG_FID":190}},
{"type":"Feature","geometry":{"type":"Point","coordinates":[111.51840494897007,36.215389942955134]},"properties":{"ID":"141002000008","NAME":"羊舍沟水库","SOURCE":"Q2011","GDB_FROM_D":"2012-08-30T00:00:00.000Z","GDB_TO_DAT":"9999-01-01T00:00:00.000Z","TYPE_":0,"longtitude":0,"altitude":0,"type":"0","ORIG_FID":191}},
{"type":"Feature","geometry":{"type":"Point","coordinates":[112.79289703401402,36.39671159588284]},"properties":{"ID":"140424000032","NAME":"羊寨水库","SOURCE":"Q2011","GDB_FROM_D":"2012-08-30T00:00:00.000Z","GDB_TO_DAT":"9999-01-01T00:00:00.000Z","TYPE_":0,"longtitude":0,"altitude":0,"type":"0","ORIG_FID":192}},
{"type":"Feature","geometry":{"type":"Point","coordinates":[113.3688823101739,36.544001668430056]},"properties":{"ID":"140426000001","NAME":"阳南河水库","SOURCE":"Q2011","GDB_FROM_D":"2012-08-30T00:00:00.000Z","GDB_TO_DAT":"9999-01-01T00:00:00.000Z","TYPE_":0,"longtitude":0,"altitude":0,"type":"0","ORIG_FID":193}},
{"type":"Feature","geometry":{"type":"Point","coordinates":[112.99659639527388,36.56673141325033]},"properties":{"ID":"140423000002","NAME":"阳泽河水库","SOURCE":"Q2011","GDB_FROM_D":"2012-08-30T00:00:00.000Z","GDB_TO_DAT":"9999-01-01T00:00:00.000Z","TYPE_":0,"longtitude":0,"altitude":0,"type":"0","ORIG_FID":194}},
{"type":"Feature","geometry":{"type":"Point","coordinates":[111.26039265460824,34.902861436439906]},"properties":{"ID":"140829000040","NAME":"尧店水库","SOURCE":"Q2011","GDB_FROM_D":"2012-08-30T00:00:00.000Z","GDB_TO_DAT":"9999-01-01T00:00:00.000Z","TYPE_":0,"longtitude":0,"altitude":0,"type":"0","ORIG_FID":195}},
{"type":"Feature","geometry":{"type":"Point","coordinates":[110.31634053977747,34.68867034745694]},"properties":{"ID":"140830000001","NAME":"姚源水库","SOURCE":"Q2011","GDB_FROM_D":"2012-08-30T00:00:00.000Z","GDB_TO_DAT":"9999-01-01T00:00:00.000Z","TYPE_":0,"longtitude":0,"altitude":0,"type":"0","ORIG_FID":196}},
{"type":"Feature","geometry":{"type":"Point","coordinates":[113.32566368816761,35.79924860802594]},"properties":{"ID":"140524000010","NAME":"安阳水库","SOURCE":"Q2011","GDB_FROM_D":"2012-08-30T00:00:00.000Z","GDB_TO_DAT":"9999-01-01T00:00:00.000Z","TYPE_":0,"longtitude":0,"altitude":0,"type":"0","ORIG_FID":197}},
{"type":"Feature","geometry":{"type":"Point","coordinates":[111.68530610066709,35.573283315540344]},"properties":{"ID":"140826000006","NAME":"安峪沟水库","SOURCE":"Q2011","GDB_FROM_D":"2012-08-30T00:00:00.000Z","GDB_TO_DAT":"9999-01-01T00:00:00.000Z","TYPE_":0,"longtitude":0,"altitude":0,"type":"0","ORIG_FID":198}},
{"type":"Feature","geometry":{"type":"Point","coordinates":[113.55618313428637,35.94820023112979]},"properties":{"ID":"140427000010","NAME":"八泉峡水库","SOURCE":"Q2011","GDB_FROM_D":"2012-08-30T00:00:00.000Z","GDB_TO_DAT":"9999-01-01T00:00:00.000Z","TYPE_":0,"longtitude":0,"altitude":0,"type":"0","ORIG_FID":199}},
{"type":"Feature","geometry":{"type":"Point","coordinates":[111.04693206811407,35.050200079491376]},"properties":{"ID":"140802000010","NAME":"八一水库","SOURCE":"Q2011","GDB_FROM_D":"2012-08-30T00:00:00.000Z","GDB_TO_DAT":"9999-01-01T00:00:00.000Z","TYPE_":0,"longtitude":0,"altitude":0,"type":"0","ORIG_FID":201}},
{"type":"Feature","geometry":{"type":"Point","coordinates":[113.26287725762428,36.02029008830784]},"properties":{"ID":"140427000009","NAME":"脚步河水库","SOURCE":"Q2011","GDB_FROM_D":"2012-08-30T00:00:00.000Z","GDB_TO_DAT":"9999-01-01T00:00:00.000Z","TYPE_":0,"longtitude":0,"altitude":0,"type":"0","ORIG_FID":202}},
{"type":"Feature","geometry":{"type":"Point","coordinates":[111.42105132656174,35.58433939615819]},"properties":{"ID":"141081000001","NAME":"金沙水库","SOURCE":"Q2011","GDB_FROM_D":"2012-08-30T00:00:00.000Z","GDB_TO_DAT":"9999-01-01T00:00:00.000Z","TYPE_":0,"longtitude":0,"altitude":0,"type":"0","ORIG_FID":203}},
{"type":"Feature","geometry":{"type":"Point","coordinates":[111.67294431197575,36.01235285954831]},"properties":{"ID":"141002000007","NAME":"金子河水库","SOURCE":"Q2011","GDB_FROM_D":"2012-08-30T00:00:00.000Z","GDB_TO_DAT":"9999-01-01T00:00:00.000Z","TYPE_":0,"longtitude":0,"altitude":0,"type":"0","ORIG_FID":204}},
{"type":"Feature","geometry":{"type":"Point","coordinates":[113.39785967629729,40.18299388468037]},"properties":{"ID":"140212000005","NAME":"靳沟窑水库","SOURCE":"Q2011","GDB_FROM_D":"2012-08-30T00:00:00.000Z","GDB_TO_DAT":"9999-01-01T00:00:00.000Z","TYPE_":0,"longtitude":0,"altitude":0,"type":"0","ORIG_FID":205}},
{"type":"Feature","geometry":{"type":"Point","coordinates":[110.95370709396089,35.682601443883904]},"properties":{"ID":"140824000001","NAME":"晋家峪水库","SOURCE":"Q2011","GDB_FROM_D":"2012-08-30T00:00:00.000Z","GDB_TO_DAT":"9999-01-01T00:00:00.000Z","TYPE_":0,"longtitude":0,"altitude":0,"type":"0","ORIG_FID":206}},
{"type":"Feature","geometry":{"type":"Point","coordinates":[112.5353966254293,37.33123752919688]},"properties":{"ID":"140726000008","NAME":"井神水库","SOURCE":"Q2011","GDB_FROM_D":"2012-08-30T00:00:00.000Z","GDB_TO_DAT":"9999-01-01T00:00:00.000Z","TYPE_":0,"longtitude":0,"altitude":0,"type":"0","ORIG_FID":207}},
{"type":"Feature","geometry":{"type":"Point","coordinates":[113.56355677582036,37.36701722638436]},"properties":{"ID":"140723000003","NAME":"井玉沟水库","SOURCE":"Q2011","GDB_FROM_D":"2012-08-30T00:00:00.000Z","GDB_TO_DAT":"9999-01-01T00:00:00.000Z","TYPE_":0,"longtitude":0,"altitude":0,"type":"0","ORIG_FID":208}},
{"type":"Feature","geometry":{"type":"Point","coordinates":[112.25884324014267,35.54505048658768]},"properties":{"ID":"140522000011","NAME":"九九水库","SOURCE":"Q2011","GDB_FROM_D":"2012-08-30T00:00:00.000Z","GDB_TO_DAT":"9999-01-01T00:00:00.000Z","TYPE_":0,"longtitude":0,"altitude":0,"type":"0","ORIG_FID":209}},
{"type":"Feature","geometry":{"type":"Point","coordinates":[112.98178582903982,40.32699717538735]},"properties":{"ID":"140212000012","NAME":"拒门水库","SOURCE":"Q2011","GDB_FROM_D":"2012-08-30T00:00:00.000Z","GDB_TO_DAT":"9999-01-01T00:00:00.000Z","TYPE_":0,"longtitude":0,"altitude":0,"type":"0","ORIG_FID":210}},
{"type":"Feature","geometry":{"type":"Point","coordinates":[110.66922603404542,36.15388515019126]},"properties":{"ID":"141028000001","NAME":"谢悉水库","SOURCE":"Q2011","GDB_FROM_D":"2012-08-30T00:00:00.000Z","GDB_TO_DAT":"9999-01-01T00:00:00.000Z","TYPE_":0,"longtitude":0,"altitude":0,"type":"0","ORIG_FID":211}},
{"type":"Feature","geometry":{"type":"Point","coordinates":[113.63153639309098,37.707826239596855]},"properties":{"ID":"140321000007","NAME":"新村水库","SOURCE":"Q2011","GDB_FROM_D":"2012-08-30T00:00:00.000Z","GDB_TO_DAT":"9999-01-01T00:00:00.000Z","TYPE_":0,"longtitude":0,"altitude":0,"type":"0","ORIG_FID":212}},
{"type":"Feature","geometry":{"type":"Point","coordinates":[111.05766255521911,34.82659158374789]},"properties":{"ID":"140829000019","NAME":"新村水库","SOURCE":"Q2011","GDB_FROM_D":"2012-08-30T00:00:00.000Z","GDB_TO_DAT":"9999-01-01T00:00:00.000Z","TYPE_":0,"longtitude":0,"altitude":0,"type":"0","ORIG_FID":213}},
{"type":"Feature","geometry":{"type":"Point","coordinates":[113.18667446161116,39.85273098352587]},"properties":{"ID":"140624000017","NAME":"新发水库","SOURCE":"Q2011","GDB_FROM_D":"2012-08-30T00:00:00.000Z","GDB_TO_DAT":"9999-01-01T00:00:00.000Z","TYPE_":0,"longtitude":0,"altitude":0,"type":"0","ORIG_FID":214}},
{"type":"Feature","geometry":{"type":"Point","coordinates":[111.51838011509999,35.71638977665819]},"properties":{"ID":"141021000008","NAME":"新建水库","SOURCE":"Q2011","GDB_FROM_D":"2012-08-30T00:00:00.000Z","GDB_TO_DAT":"9999-01-01T00:00:00.000Z","TYPE_":0,"longtitude":0,"altitude":0,"type":"0","ORIG_FID":215}},
{"type":"Feature","geometry":{"type":"Point","coordinates":[114.04830500663584,40.089281992781245]},"properties":{"ID":"140221000007","NAME":"兴隆堡水库","SOURCE":"Q2011","GDB_FROM_D":"2012-08-30T00:00:00.000Z","GDB_TO_DAT":"9999-01-01T00:00:00.000Z","TYPE_":0,"longtitude":0,"altitude":0,"type":"0","ORIG_FID":216}},
{"type":"Feature","geometry":{"type":"Point","coordinates":[111.29530048518804,38.50688657779788]},"properties":{"ID":"141123000003","NAME":"兴县明通沟水库","SOURCE":"Q2011","GDB_FROM_D":"2012-08-30T00:00:00.000Z","GDB_TO_DAT":"9999-01-01T00:00:00.000Z","TYPE_":0,"longtitude":0,"altitude":0,"type":"0","ORIG_FID":217}},
{"type":"Feature","geometry":{"type":"Point","coordinates":[112.73328487170153,35.409106678423626]},"properties":{"ID":"140525000004","NAME":"冶底水库","SOURCE":"Q2011","GDB_FROM_D":"2012-08-30T00:00:00.000Z","GDB_TO_DAT":"9999-01-01T00:00:00.000Z","TYPE_":0,"longtitude":0,"altitude":0,"type":"0","ORIG_FID":218}},
{"type":"Feature","geometry":{"type":"Point","coordinates":[112.60505390850014,36.282709777090275]},"properties":{"ID":"140424000022","NAME":"宜丰水库","SOURCE":"Q2011","GDB_FROM_D":"2012-08-30T00:00:00.000Z","GDB_TO_DAT":"9999-01-01T00:00:00.000Z","TYPE_":0,"longtitude":0,"altitude":0,"type":"0","ORIG_FID":219}},
{"type":"Feature","geometry":{"type":"Point","coordinates":[110.82627197713904,34.77416416834116]},"properties":{"ID":"140830000003","NAME":"义和水库","SOURCE":"Q2011","GDB_FROM_D":"2012-08-30T00:00:00.000Z","GDB_TO_DAT":"9999-01-01T00:00:00.000Z","TYPE_":0,"longtitude":0,"altitude":0,"type":"0","ORIG_FID":220}},
{"type":"Feature","geometry":{"type":"Point","coordinates":[111.01594364803796,34.94727326664097]},"properties":{"ID":"140802000012","NAME":"义同水库","SOURCE":"Q2011","GDB_FROM_D":"2012-08-30T00:00:00.000Z","GDB_TO_DAT":"9999-01-01T00:00:00.000Z","TYPE_":0,"longtitude":0,"altitude":0,"type":"0","ORIG_FID":221}},
{"type":"Feature","geometry":{"type":"Point","coordinates":[112.81106735536291,38.17847046192554]},"properties":{"ID":"140122000006","NAME":"阴山水库","SOURCE":"Q2011","GDB_FROM_D":"2012-08-30T00:00:00.000Z","GDB_TO_DAT":"9999-01-01T00:00:00.000Z","TYPE_":0,"longtitude":0,"altitude":0,"type":"0","ORIG_FID":222}},
{"type":"Feature","geometry":{"type":"Point","coordinates":[112.21622793458002,37.168037193637474]},"properties":{"ID":"140728000001","NAME":"尹回水库","SOURCE":"Q2011","GDB_FROM_D":"2012-08-30T00:00:00.000Z","GDB_TO_DAT":"9999-01-01T00:00:00.000Z","TYPE_":0,"longtitude":0,"altitude":0,"type":"0","ORIG_FID":223}},
{"type":"Feature","geometry":{"type":"Point","coordinates":[113.44510976679393,39.516433300426066]},"properties":{"ID":"140622000001","NAME":"应县北楼口水库","SOURCE":"Q2011","GDB_FROM_D":"2012-08-30T00:00:00.000Z","GDB_TO_DAT":"9999-01-01T00:00:00.000Z","TYPE_":0,"longtitude":0,"altitude":0,"type":"0","ORIG_FID":224}},
{"type":"Feature","geometry":{"type":"Point","coordinates":[113.31123648693124,39.6624316125533]},"properties":{"ID":"140622000002","NAME":"应县边耀水库","SOURCE":"Q2011","GDB_FROM_D":"2012-08-30T00:00:00.000Z","GDB_TO_DAT":"9999-01-01T00:00:00.000Z","TYPE_":0,"longtitude":0,"altitude":0,"type":"0","ORIG_FID":225}},
{"type":"Feature","geometry":{"type":"Point","coordinates":[113.46345838452467,40.0384901645257]},"properties":{"ID":"140227000015","NAME":"营坊沟水库","SOURCE":"Q2011","GDB_FROM_D":"2012-08-30T00:00:00.000Z","GDB_TO_DAT":"9999-01-01T00:00:00.000Z","TYPE_":0,"longtitude":0,"altitude":0,"type":"0","ORIG_FID":226}},
{"type":"Feature","geometry":{"type":"Point","coordinates":[112.66522329634607,38.07996398830586]},"properties":{"ID":"140122000008","NAME":"迎春水库","SOURCE":"Q2011","GDB_FROM_D":"2012-08-30T00:00:00.000Z","GDB_TO_DAT":"9999-01-01T00:00:00.000Z","TYPE_":0,"longtitude":0,"altitude":0,"type":"0","ORIG_FID":227}},
{"type":"Feature","geometry":{"type":"Point","coordinates":[112.14237154852356,37.07566556401183]},"properties":{"ID":"140781000003","NAME":"张村水库","SOURCE":"Q2011","GDB_FROM_D":"2012-08-30T00:00:00.000Z","GDB_TO_DAT":"9999-01-01T00:00:00.000Z","TYPE_":0,"longtitude":0,"altitude":0,"type":"0","ORIG_FID":228}},
{"type":"Feature","geometry":{"type":"Point","coordinates":[112.77027245307642,36.41107673811483]},"properties":{"ID":"140424000031","NAME":"张家沟水库","SOURCE":"Q2011","GDB_FROM_D":"2012-08-30T00:00:00.000Z","GDB_TO_DAT":"9999-01-01T00:00:00.000Z","TYPE_":0,"longtitude":0,"altitude":0,"type":"0","ORIG_FID":229}},
{"type":"Feature","geometry":{"type":"Point","coordinates":[111.74805412701943,37.12710818554992]},"properties":{"ID":"141181000001","NAME":"张家庄水库","SOURCE":"Q2011","GDB_FROM_D":"2012-08-30T00:00:00.000Z","GDB_TO_DAT":"9999-01-01T00:00:00.000Z","TYPE_":0,"longtitude":0,"altitude":0,"type":"0","ORIG_FID":230}},
{"type":"Feature","geometry":{"type":"Point","coordinates":[114.01650520199593,40.09399737320404]},"properties":{"ID":"140221000008","NAME":"张家夭水库","SOURCE":"Q2011","GDB_FROM_D":"2012-08-30T00:00:00.000Z","GDB_TO_DAT":"9999-01-01T00:00:00.000Z","TYPE_":0,"longtitude":0,"altitude":0,"type":"0","ORIG_FID":233}},
{"type":"Feature","geometry":{"type":"Point","coordinates":[111.66401851295258,35.47801687742541]},"properties":{"ID":"140826000001","NAME":"张上水库","SOURCE":"Q2011","GDB_FROM_D":"2012-08-30T00:00:00.000Z","GDB_TO_DAT":"9999-01-01T00:00:00.000Z","TYPE_":0,"longtitude":0,"altitude":0,"type":"0","ORIG_FID":234}},
{"type":"Feature","geometry":{"type":"Point","coordinates":[110.7648429227843,35.40961131912207]},"properties":{"ID":"140822000001","NAME":"张王水库","SOURCE":"Q2011","GDB_FROM_D":"2012-08-30T00:00:00.000Z","GDB_TO_DAT":"9999-01-01T00:00:00.000Z","TYPE_":0,"longtitude":0,"altitude":0,"type":"0","ORIG_FID":235}},
{"type":"Feature","geometry":{"type":"Point","coordinates":[113.68185828906586,40.384223778591064]},"properties":{"ID":"140221000003","NAME":"张小村水库","SOURCE":"Q2011","GDB_FROM_D":"2012-08-30T00:00:00.000Z","GDB_TO_DAT":"9999-01-01T00:00:00.000Z","TYPE_":0,"longtitude":0,"altitude":0,"type":"0","ORIG_FID":236}},
{"type":"Feature","geometry":{"type":"Point","coordinates":[112.75951805087409,35.73496507061568]},"properties":{"ID":"140581000005","NAME":"掌握水库","SOURCE":"Q2011","GDB_FROM_D":"2012-08-30T00:00:00.000Z","GDB_TO_DAT":"9999-01-01T00:00:00.000Z","TYPE_":0,"longtitude":0,"altitude":0,"type":"0","ORIG_FID":237}},
{"type":"Feature","geometry":{"type":"Point","coordinates":[111.6673453135723,36.04623470068288]},"properties":{"ID":"141002000002","NAME":"巨河水库","SOURCE":"Q2011","GDB_FROM_D":"2012-08-30T00:00:00.000Z","GDB_TO_DAT":"9999-01-01T00:00:00.000Z","TYPE_":0,"longtitude":0,"altitude":0,"type":"0","ORIG_FID":238}},
{"type":"Feature","geometry":{"type":"Point","coordinates":[112.2101717545149,37.08786856714316]},"properties":{"ID":"140728000009","NAME":"军寨水库","SOURCE":"Q2011","GDB_FROM_D":"2012-08-30T00:00:00.000Z","GDB_TO_DAT":"9999-01-01T00:00:00.000Z","TYPE_":0,"longtitude":0,"altitude":0,"type":"0","ORIG_FID":239}},
{"type":"Feature","geometry":{"type":"Point","coordinates":[110.94672074411994,34.80405018638315]},"properties":{"ID":"140829000014","NAME":"坑底水库","SOURCE":"Q2011","GDB_FROM_D":"2012-08-30T00:00:00.000Z","GDB_TO_DAT":"9999-01-01T00:00:00.000Z","TYPE_":0,"longtitude":0,"altitude":0,"type":"0","ORIG_FID":240}},
{"type":"Feature","geometry":{"type":"Point","coordinates":[110.66906067750537,34.71932499085086]},"properties":{"ID":"140830000006","NAME":"坑头水库","SOURCE":"Q2011","GDB_FROM_D":"2012-08-30T00:00:00.000Z","GDB_TO_DAT":"9999-01-01T00:00:00.000Z","TYPE_":0,"longtitude":0,"altitude":0,"type":"0","ORIG_FID":241}},
{"type":"Feature","geometry":{"type":"Point","coordinates":[112.82920804882018,35.65441201150798]},"properties":{"ID":"140525000016","NAME":"来村水库","SOURCE":"Q2011","GDB_FROM_D":"2012-08-30T00:00:00.000Z","GDB_TO_DAT":"9999-01-01T00:00:00.000Z","TYPE_":0,"longtitude":0,"altitude":0,"type":"0","ORIG_FID":242}},
{"type":"Feature","geometry":{"type":"Point","coordinates":[112.68187731459417,36.38356354583553]},"properties":{"ID":"140424000027","NAME":"老庄沟水库","SOURCE":"Q2011","GDB_FROM_D":"2012-08-30T00:00:00.000Z","GDB_TO_DAT":"9999-01-01T00:00:00.000Z","TYPE_":0,"longtitude":0,"altitude":0,"type":"0","ORIG_FID":243}},
{"type":"Feature","geometry":{"type":"Point","coordinates":[112.40037461390729,35.51724973125182]},"properties":{"ID":"140522000001","NAME":"幸福水库","SOURCE":"Q2011","GDB_FROM_D":"2012-08-30T00:00:00.000Z","GDB_TO_DAT":"9999-01-01T00:00:00.000Z","TYPE_":0,"longtitude":0,"altitude":0,"type":"0","ORIG_FID":244}},
{"type":"Feature","geometry":{"type":"Point","coordinates":[111.01086137755858,34.833557539444705]},"properties":{"ID":"140829000010","NAME":"幸福水库","SOURCE":"Q2011","GDB_FROM_D":"2012-08-30T00:00:00.000Z","GDB_TO_DAT":"9999-01-01T00:00:00.000Z","TYPE_":0,"longtitude":0,"altitude":0,"type":"0","ORIG_FID":245}},
{"type":"Feature","geometry":{"type":"Point","coordinates":[110.89940277247281,37.735246507459514]},"properties":{"ID":"141124000004","NAME":"薛家圪台水库","SOURCE":"Q2011","GDB_FROM_D":"2012-08-30T00:00:00.000Z","GDB_TO_DAT":"9999-01-01T00:00:00.000Z","TYPE_":0,"longtitude":0,"altitude":0,"type":"0","ORIG_FID":246}},
{"type":"Feature","geometry":{"type":"Point","coordinates":[111.46785820665455,35.5866473091706]},"properties":{"ID":"141021000007","NAME":"薛庄水库","SOURCE":"Q2011","GDB_FROM_D":"2012-08-30T00:00:00.000Z","GDB_TO_DAT":"9999-01-01T00:00:00.000Z","TYPE_":0,"longtitude":0,"altitude":0,"type":"0","ORIG_FID":247}},
{"type":"Feature","geometry":{"type":"Point","coordinates":[112.85711096816705,35.59289780550607]},"properties":{"ID":"140525000006","NAME":"哑叭沟水库","SOURCE":"Q2011","GDB_FROM_D":"2012-08-30T00:00:00.000Z","GDB_TO_DAT":"9999-01-01T00:00:00.000Z","TYPE_":0,"longtitude":0,"altitude":0,"type":"0","ORIG_FID":248}},
{"type":"Feature","geometry":{"type":"Point","coordinates":[112.94725715284397,36.40651620708814]},"properties":{"ID":"140423000003","NAME":"阎村水库","SOURCE":"Q2011","GDB_FROM_D":"2012-08-30T00:00:00.000Z","GDB_TO_DAT":"9999-01-01T00:00:00.000Z","TYPE_":0,"longtitude":0,"altitude":0,"type":"0","ORIG_FID":249}},
{"type":"Feature","geometry":{"type":"Point","coordinates":[111.88818137759283,36.035285511669116]},"properties":{"ID":"141027000003","NAME":"燕凹沟水库","SOURCE":"Q2011","GDB_FROM_D":"2012-08-30T00:00:00.000Z","GDB_TO_DAT":"9999-01-01T00:00:00.000Z","TYPE_":0,"longtitude":0,"altitude":0,"type":"0","ORIG_FID":250}},
{"type":"Feature","geometry":{"type":"Point","coordinates":[112.79075077588566,36.14576870430004]},"properties":{"ID":"140428000003","NAME":"雍河水库","SOURCE":"Q2011","GDB_FROM_D":"2012-08-30T00:00:00.000Z","GDB_TO_DAT":"9999-01-01T00:00:00.000Z","TYPE_":0,"longtitude":0,"altitude":0,"type":"0","ORIG_FID":251}},
{"type":"Feature","geometry":{"type":"Point","coordinates":[112.36320046267882,36.70840282043621]},"properties":{"ID":"140431000003","NAME":"永和水电站-水库工程","SOURCE":"Q2011","GDB_FROM_D":"2012-08-30T00:00:00.000Z","GDB_TO_DAT":"9999-01-01T00:00:00.000Z","TYPE_":0,"longtitude":0,"altitude":0,"type":"0","ORIG_FID":252}},
{"type":"Feature","geometry":{"type":"Point","coordinates":[111.01415372017156,34.826739320860455]},"properties":{"ID":"140829000012","NAME":"油坊沟水库","SOURCE":"Q2011","GDB_FROM_D":"2012-08-30T00:00:00.000Z","GDB_TO_DAT":"9999-01-01T00:00:00.000Z","TYPE_":0,"longtitude":0,"altitude":0,"type":"0","ORIG_FID":253}},
{"type":"Feature","geometry":{"type":"Point","coordinates":[113.53623700092413,38.04599760017613]},"properties":{"ID":"140311000001","NAME":"油瓮水库","SOURCE":"Q2011","GDB_FROM_D":"2012-08-30T00:00:00.000Z","GDB_TO_DAT":"9999-01-01T00:00:00.000Z","TYPE_":0,"longtitude":0,"altitude":0,"type":"0","ORIG_FID":254}},
{"type":"Feature","geometry":{"type":"Point","coordinates":[112.33107932602256,35.62499514728899]},"properties":{"ID":"140522000020","NAME":"游仙水库","SOURCE":"Q2011","GDB_FROM_D":"2012-08-30T00:00:00.000Z","GDB_TO_DAT":"9999-01-01T00:00:00.000Z","TYPE_":0,"longtitude":0,"altitude":0,"type":"0","ORIG_FID":255}},
{"type":"Feature","geometry":{"type":"Point","coordinates":[111.89909981346331,36.921817144575336]},"properties":{"ID":"140781000001","NAME":"友谊水库","SOURCE":"Q2011","GDB_FROM_D":"2012-08-30T00:00:00.000Z","GDB_TO_DAT":"9999-01-01T00:00:00.000Z","TYPE_":0,"longtitude":0,"altitude":0,"type":"0","ORIG_FID":256}},
{"type":"Feature","geometry":{"type":"Point","coordinates":[113.90076241111346,37.85613959753695]},"properties":{"ID":"140321000015","NAME":"榆林沟水库","SOURCE":"Q2011","GDB_FROM_D":"2012-08-30T00:00:00.000Z","GDB_TO_DAT":"9999-01-01T00:00:00.000Z","TYPE_":0,"longtitude":0,"altitude":0,"type":"0","ORIG_FID":257}},
{"type":"Feature","geometry":{"type":"Point","coordinates":[113.63131513456847,39.97796830394805]},"properties":{"ID":"140227000003","NAME":"渔儿涧水库","SOURCE":"Q2011","GDB_FROM_D":"2012-08-30T00:00:00.000Z","GDB_TO_DAT":"9999-01-01T00:00:00.000Z","TYPE_":0,"longtitude":0,"altitude":0,"type":"0","ORIG_FID":258}},
{"type":"Feature","geometry":{"type":"Point","coordinates":[111.33971340652789,34.85956395271033]},"properties":{"ID":"140829000026","NAME":"禹三水库","SOURCE":"Q2011","GDB_FROM_D":"2012-08-30T00:00:00.000Z","GDB_TO_DAT":"9999-01-01T00:00:00.000Z","TYPE_":0,"longtitude":0,"altitude":0,"type":"0","ORIG_FID":259}},
{"type":"Feature","geometry":{"type":"Point","coordinates":[111.38578900999391,35.93486036305542]},"properties":{"ID":"141023000003","NAME":"中陈水库","SOURCE":"Q2011","GDB_FROM_D":"2012-08-30T00:00:00.000Z","GDB_TO_DAT":"9999-01-01T00:00:00.000Z","TYPE_":0,"longtitude":0,"altitude":0,"type":"0","ORIG_FID":260}},
{"type":"Feature","geometry":{"type":"Point","coordinates":[112.97542788352891,38.96963718738769]},"properties":{"ID":"140923000001","NAME":"中解水库","SOURCE":"Q2011","GDB_FROM_D":"2012-08-30T00:00:00.000Z","GDB_TO_DAT":"9999-01-01T00:00:00.000Z","TYPE_":0,"longtitude":0,"altitude":0,"type":"0","ORIG_FID":261}},
{"type":"Feature","geometry":{"type":"Point","coordinates":[111.1886251517784,35.1489587031096]},"properties":{"ID":"140828000003","NAME":"中留水库","SOURCE":"Q2011","GDB_FROM_D":"2012-08-30T00:00:00.000Z","GDB_TO_DAT":"9999-01-01T00:00:00.000Z","TYPE_":0,"longtitude":0,"altitude":0,"type":"0","ORIG_FID":262}},
{"type":"Feature","geometry":{"type":"Point","coordinates":[111.02262446072426,34.789874402126536]},"properties":{"ID":"140829000011","NAME":"中张水库","SOURCE":"Q2011","GDB_FROM_D":"2012-08-30T00:00:00.000Z","GDB_TO_DAT":"9999-01-01T00:00:00.000Z","TYPE_":0,"longtitude":0,"altitude":0,"type":"0","ORIG_FID":263}},
{"type":"Feature","geometry":{"type":"Point","coordinates":[112.28731811874478,35.481688750981306]},"properties":{"ID":"140522000009","NAME":"周壁水库","SOURCE":"Q2011","GDB_FROM_D":"2012-08-30T00:00:00.000Z","GDB_TO_DAT":"9999-01-01T00:00:00.000Z","TYPE_":0,"longtitude":0,"altitude":0,"type":"0","ORIG_FID":264}},
{"type":"Feature","geometry":{"type":"Point","coordinates":[113.38416076160038,35.756250105675434]},"properties":{"ID":"140524000007","NAME":"猪头山水库","SOURCE":"Q2011","GDB_FROM_D":"2012-08-30T00:00:00.000Z","GDB_TO_DAT":"9999-01-01T00:00:00.000Z","TYPE_":0,"longtitude":0,"altitude":0,"type":"0","ORIG_FID":265}},
{"type":"Feature","geometry":{"type":"Point","coordinates":[113.76964346652161,40.166357001644755]},"properties":{"ID":"140221000027","NAME":"砖井水库","SOURCE":"Q2011","GDB_FROM_D":"2012-08-30T00:00:00.000Z","GDB_TO_DAT":"9999-01-01T00:00:00.000Z","TYPE_":0,"longtitude":0,"altitude":0,"type":"0","ORIG_FID":266}},
{"type":"Feature","geometry":{"type":"Point","coordinates":[111.62906994114984,35.44285825401892]},"properties":{"ID":"140826000008","NAME":"紫家峪水库","SOURCE":"Q2011","GDB_FROM_D":"2012-08-30T00:00:00.000Z","GDB_TO_DAT":"9999-01-01T00:00:00.000Z","TYPE_":0,"longtitude":0,"altitude":0,"type":"0","ORIG_FID":267}},
{"type":"Feature","geometry":{"type":"Point","coordinates":[112.69683039391386,36.34440303468426]},"properties":{"ID":"140424000037","NAME":"梨树庄水库","SOURCE":"Q2011","GDB_FROM_D":"2012-08-30T00:00:00.000Z","GDB_TO_DAT":"9999-01-01T00:00:00.000Z","TYPE_":0,"longtitude":0,"altitude":0,"type":"0","ORIG_FID":268}},
{"type":"Feature","geometry":{"type":"Point","coordinates":[113.39915407336028,39.65692303309274]},"properties":{"ID":"140225000002","NAME":"梨园水库","SOURCE":"Q2011","GDB_FROM_D":"2012-08-30T00:00:00.000Z","GDB_TO_DAT":"9999-01-01T00:00:00.000Z","TYPE_":0,"longtitude":0,"altitude":0,"type":"0","ORIG_FID":269}},
{"type":"Feature","geometry":{"type":"Point","coordinates":[112.60031746633084,36.22822423025878]},"properties":{"ID":"140424000021","NAME":"李柴沟水库","SOURCE":"Q2011","GDB_FROM_D":"2012-08-30T00:00:00.000Z","GDB_TO_DAT":"9999-01-01T00:00:00.000Z","TYPE_":0,"longtitude":0,"altitude":0,"type":"0","ORIG_FID":270}},
{"type":"Feature","geometry":{"type":"Point","coordinates":[113.25698239014021,40.23903346537029]},"properties":{"ID":"140212000008","NAME":"李花庄水库","SOURCE":"Q2011","GDB_FROM_D":"2012-08-30T00:00:00.000Z","GDB_TO_DAT":"9999-01-01T00:00:00.000Z","TYPE_":0,"longtitude":0,"altitude":0,"type":"0","ORIG_FID":271}},
{"type":"Feature","geometry":{"type":"Point","coordinates":[112.76258119495677,36.118251294314945]},"properties":{"ID":"140428000004","NAME":"李家庄水库","SOURCE":"Q2011","GDB_FROM_D":"2012-08-30T00:00:00.000Z","GDB_TO_DAT":"9999-01-01T00:00:00.000Z","TYPE_":0,"longtitude":0,"altitude":0,"type":"0","ORIG_FID":272}},
{"type":"Feature","geometry":{"type":"Point","coordinates":[112.64262162478002,36.83900599628414]},"properties":{"ID":"140430000003","NAME":"沁县漳源水库","SOURCE":"Q2011","GDB_FROM_D":"2012-08-30T00:00:00.000Z","GDB_TO_DAT":"9999-01-01T00:00:00.000Z","TYPE_":0,"longtitude":0,"altitude":0,"type":"0","ORIG_FID":274}},
{"type":"Feature","geometry":{"type":"Point","coordinates":[112.84855397219891,39.021758704902666]},"properties":{"ID":"140923000010","NAME":"青龙水库","SOURCE":"Q2011","GDB_FROM_D":"2012-08-30T00:00:00.000Z","GDB_TO_DAT":"9999-01-01T00:00:00.000Z","TYPE_":0,"longtitude":0,"altitude":0,"type":"0","ORIG_FID":275}},
{"type":"Feature","geometry":{"type":"Point","coordinates":[112.58462363552859,39.19688835499351]},"properties":{"ID":"140602000005","NAME":"青钟水库","SOURCE":"Q2011","GDB_FROM_D":"2012-08-30T00:00:00.000Z","GDB_TO_DAT":"9999-01-01T00:00:00.000Z","TYPE_":0,"longtitude":0,"altitude":0,"type":"0","ORIG_FID":276}},
{"type":"Feature","geometry":{"type":"Point","coordinates":[110.72557810362898,35.953492694047455]},"properties":{"ID":"141029000001","NAME":"清峪水库","SOURCE":"Q2011","GDB_FROM_D":"2012-08-30T00:00:00.000Z","GDB_TO_DAT":"9999-01-01T00:00:00.000Z","TYPE_":0,"longtitude":0,"altitude":0,"type":"0","ORIG_FID":277}},
{"type":"Feature","geometry":{"type":"Point","coordinates":[110.99025429702348,34.927141418695626]},"properties":{"ID":"140802000018","NAME":"曲村水库","SOURCE":"Q2011","GDB_FROM_D":"2012-08-30T00:00:00.000Z","GDB_TO_DAT":"9999-01-01T00:00:00.000Z","TYPE_":0,"longtitude":0,"altitude":0,"type":"0","ORIG_FID":278}},
{"type":"Feature","geometry":{"type":"Point","coordinates":[112.50092259022266,37.30755402526613]},"properties":{"ID":"140727000003","NAME":"峪口 水库","SOURCE":"Q2011","GDB_FROM_D":"2012-08-30T00:00:00.000Z","GDB_TO_DAT":"9999-01-01T00:00:00.000Z","TYPE_":0,"longtitude":0,"altitude":0,"type":"0","ORIG_FID":279}},
{"type":"Feature","geometry":{"type":"Point","coordinates":[113.54931198505646,37.78242022677575]},"properties":{"ID":"140321000003","NAME":"原坪水库","SOURCE":"Q2011","GDB_FROM_D":"2012-08-30T00:00:00.000Z","GDB_TO_DAT":"9999-01-01T00:00:00.000Z","TYPE_":0,"longtitude":0,"altitude":0,"type":"0","ORIG_FID":280}},
{"type":"Feature","geometry":{"type":"Point","coordinates":[111.83526012909543,35.192725538011324]},"properties":{"ID":"140827000003","NAME":"源河沟水库","SOURCE":"Q2011","GDB_FROM_D":"2012-08-30T00:00:00.000Z","GDB_TO_DAT":"9999-01-01T00:00:00.000Z","TYPE_":0,"longtitude":0,"altitude":0,"type":"0","ORIG_FID":281}},
{"type":"Feature","geometry":{"type":"Point","coordinates":[112.33794903968327,37.166298567687754]},"properties":{"ID":"140728000002","NAME":"源神庙水库","SOURCE":"Q2011","GDB_FROM_D":"2012-08-30T00:00:00.000Z","GDB_TO_DAT":"9999-01-01T00:00:00.000Z","TYPE_":0,"longtitude":0,"altitude":0,"type":"0","ORIG_FID":282}},
{"type":"Feature","geometry":{"type":"Point","coordinates":[111.76803587147214,36.41302226403496]},"properties":{"ID":"141024000007","NAME":"苑川堡水库","SOURCE":"Q2011","GDB_FROM_D":"2012-08-30T00:00:00.000Z","GDB_TO_DAT":"9999-01-01T00:00:00.000Z","TYPE_":0,"longtitude":0,"altitude":0,"type":"0","ORIG_FID":283}},
{"type":"Feature","geometry":{"type":"Point","coordinates":[111.27463368470441,35.22378946729093]},"properties":{"ID":"140828000007","NAME":"跃进水库","SOURCE":"Q2011","GDB_FROM_D":"2012-08-30T00:00:00.000Z","GDB_TO_DAT":"9999-01-01T00:00:00.000Z","TYPE_":0,"longtitude":0,"altitude":0,"type":"0","ORIG_FID":284}},
{"type":"Feature","geometry":{"type":"Point","coordinates":[111.77260391364881,36.082052492666556]},"properties":{"ID":"141002000003","NAME":"岳壁水库","SOURCE":"Q2011","GDB_FROM_D":"2012-08-30T00:00:00.000Z","GDB_TO_DAT":"9999-01-01T00:00:00.000Z","TYPE_":0,"longtitude":0,"altitude":0,"type":"0","ORIG_FID":285}},
{"type":"Feature","geometry":{"type":"Point","coordinates":[113.6929061968601,38.001887145375925]},"properties":{"ID":"140321000018","NAME":"岳家庄水库","SOURCE":"Q2011","GDB_FROM_D":"2012-08-30T00:00:00.000Z","GDB_TO_DAT":"9999-01-01T00:00:00.000Z","TYPE_":0,"longtitude":0,"altitude":0,"type":"0","ORIG_FID":286}},
{"type":"Feature","geometry":{"type":"Point","coordinates":[113.12623644933655,39.814647794997335]},"properties":{"ID":"140624000018","NAME":"云东水库","SOURCE":"Q2011","GDB_FROM_D":"2012-08-30T00:00:00.000Z","GDB_TO_DAT":"9999-01-01T00:00:00.000Z","TYPE_":0,"longtitude":0,"altitude":0,"type":"0","ORIG_FID":287}},
{"type":"Feature","geometry":{"type":"Point","coordinates":[113.30630554975652,35.77703062927789]},"properties":{"ID":"140524000003","NAME":"云谷图水库","SOURCE":"Q2011","GDB_FROM_D":"2012-08-30T00:00:00.000Z","GDB_TO_DAT":"9999-01-01T00:00:00.000Z","TYPE_":0,"longtitude":0,"altitude":0,"type":"0","ORIG_FID":289}},
{"type":"Feature","geometry":{"type":"Point","coordinates":[113.04030406572025,35.81369754528938]},"properties":{"ID":"140581000004","NAME":"云泉水库","SOURCE":"Q2011","GDB_FROM_D":"2012-08-30T00:00:00.000Z","GDB_TO_DAT":"9999-01-01T00:00:00.000Z","TYPE_":0,"longtitude":0,"altitude":0,"type":"0","ORIG_FID":290}},
{"type":"Feature","geometry":{"type":"Point","coordinates":[112.47607473207478,35.79774679475613]},"properties":{"ID":"140521000001","NAME":"山泽水库","SOURCE":"Q2011","GDB_FROM_D":"2012-08-30T00:00:00.000Z","GDB_TO_DAT":"9999-01-01T00:00:00.000Z","TYPE_":0,"longtitude":0,"altitude":0,"type":"0","ORIG_FID":291}},
{"type":"Feature","geometry":{"type":"Point","coordinates":[111.64921226012618,39.04527623554305]},"properties":{"ID":"140928000002","NAME":"白草庄水库","SOURCE":"Q2011","GDB_FROM_D":"2012-08-30T00:00:00.000Z","GDB_TO_DAT":"9999-01-01T00:00:00.000Z","TYPE_":0,"longtitude":0,"altitude":0,"type":"0","ORIG_FID":292}},
{"type":"Feature","geometry":{"type":"Point","coordinates":[111.24637386394855,35.11531272184411]},"properties":{"ID":"140828000001","NAME":"白沙河水库","SOURCE":"Q2011","GDB_FROM_D":"2012-08-30T00:00:00.000Z","GDB_TO_DAT":"9999-01-01T00:00:00.000Z","TYPE_":0,"longtitude":0,"altitude":0,"type":"0","ORIG_FID":293}},
{"type":"Feature","geometry":{"type":"Point","coordinates":[112.93814026082052,35.3545779493888]},"properties":{"ID":"140525000027","NAME":"白水河水库","SOURCE":"Q2011","GDB_FROM_D":"2012-08-30T00:00:00.000Z","GDB_TO_DAT":"9999-01-01T00:00:00.000Z","TYPE_":0,"longtitude":0,"altitude":0,"type":"0","ORIG_FID":294}},
{"type":"Feature","geometry":{"type":"Point","coordinates":[113.67182701760207,37.68111436575161]},"properties":{"ID":"140321000008","NAME":"白杨沟水库","SOURCE":"Q2011","GDB_FROM_D":"2012-08-30T00:00:00.000Z","GDB_TO_DAT":"9999-01-01T00:00:00.000Z","TYPE_":0,"longtitude":0,"altitude":0,"type":"0","ORIG_FID":295}},
{"type":"Feature","geometry":{"type":"Point","coordinates":[113.76033093924762,37.38345807456637]},"properties":{"ID":"140724000014","NAME":"白羊峪水库","SOURCE":"Q2011","GDB_FROM_D":"2012-08-30T00:00:00.000Z","GDB_TO_DAT":"9999-01-01T00:00:00.000Z","TYPE_":0,"longtitude":0,"altitude":0,"type":"0","ORIG_FID":296}},
{"type":"Feature","geometry":{"type":"Point","coordinates":[110.84820316455107,34.878839956767294]},"properties":{"ID":"140802000013","NAME":"白峪口水库","SOURCE":"Q2011","GDB_FROM_D":"2012-08-30T00:00:00.000Z","GDB_TO_DAT":"9999-01-01T00:00:00.000Z","TYPE_":0,"longtitude":0,"altitude":0,"type":"0","ORIG_FID":297}},
{"type":"Feature","geometry":{"type":"Point","coordinates":[111.08502052765577,35.346124204726074]},"properties":{"ID":"140823000005","NAME":"柏林水库","SOURCE":"Q2011","GDB_FROM_D":"2012-08-30T00:00:00.000Z","GDB_TO_DAT":"9999-01-01T00:00:00.000Z","TYPE_":0,"longtitude":0,"altitude":0,"type":"0","ORIG_FID":298}},
{"type":"Feature","geometry":{"type":"Point","coordinates":[113.14316229030196,40.34406717800456]},"properties":{"ID":"140212000003","NAME":"李三窑水库","SOURCE":"Q2011","GDB_FROM_D":"2012-08-30T00:00:00.000Z","GDB_TO_DAT":"9999-01-01T00:00:00.000Z","TYPE_":0,"longtitude":0,"altitude":0,"type":"0","ORIG_FID":299}},
{"type":"Feature","geometry":{"type":"Point","coordinates":[111.71675950374916,35.46710409277993]},"properties":{"ID":"140826000005","NAME":"里册峪水库","SOURCE":"Q2011","GDB_FROM_D":"2012-08-30T00:00:00.000Z","GDB_TO_DAT":"9999-01-01T00:00:00.000Z","TYPE_":0,"longtitude":0,"altitude":0,"type":"0","ORIG_FID":300}},
{"type":"Feature","geometry":{"type":"Point","coordinates":[112.3992673651363,35.460714349046974]},"properties":{"ID":"140522000002","NAME":"栗沟水库","SOURCE":"Q2011","GDB_FROM_D":"2012-08-30T00:00:00.000Z","GDB_TO_DAT":"9999-01-01T00:00:00.000Z","TYPE_":0,"longtitude":0,"altitude":0,"type":"0","ORIG_FID":301}},
{"type":"Feature","geometry":{"type":"Point","coordinates":[112.41592770996344,35.38215765471294]},"properties":{"ID":"140522000015","NAME":"利民水库","SOURCE":"Q2011","GDB_FROM_D":"2012-08-30T00:00:00.000Z","GDB_TO_DAT":"9999-01-01T00:00:00.000Z","TYPE_":0,"longtitude":0,"altitude":0,"type":"0","ORIG_FID":302}},
{"type":"Feature","geometry":{"type":"Point","coordinates":[113.66795220780878,40.18087907615492]},"properties":{"ID":"140221000012","NAME":"两家营二库","SOURCE":"Q2011","GDB_FROM_D":"2012-08-30T00:00:00.000Z","GDB_TO_DAT":"9999-01-01T00:00:00.000Z","TYPE_":0,"longtitude":0,"altitude":0,"type":"0","ORIG_FID":303}},
{"type":"Feature","geometry":{"type":"Point","coordinates":[113.65864475082118,40.167396287935254]},"properties":{"ID":"140221000013","NAME":"两家营一库","SOURCE":"Q2011","GDB_FROM_D":"2012-08-30T00:00:00.000Z","GDB_TO_DAT":"9999-01-01T00:00:00.000Z","TYPE_":0,"longtitude":0,"altitude":0,"type":"0","ORIG_FID":304}},
{"type":"Feature","geometry":{"type":"Point","coordinates":[111.92446348335173,36.744482100451286]},"properties":{"ID":"140729000001","NAME":"灵石县石膏山水库","SOURCE":"Q2011","GDB_FROM_D":"2012-08-30T00:00:00.000Z","GDB_TO_DAT":"9999-01-01T00:00:00.000Z","TYPE_":0,"longtitude":0,"altitude":0,"type":"0","ORIG_FID":305}},
{"type":"Feature","geometry":{"type":"Point","coordinates":[111.54108455118083,35.57244161159153]},"properties":{"ID":"141021000006","NAME":"曲沃县沸泉二库","SOURCE":"Q2011","GDB_FROM_D":"2012-08-30T00:00:00.000Z","GDB_TO_DAT":"9999-01-01T00:00:00.000Z","TYPE_":0,"longtitude":0,"altitude":0,"type":"0","ORIG_FID":306}},
{"type":"Feature","geometry":{"type":"Point","coordinates":[111.46065374356417,35.728779824288715]},"properties":{"ID":"141021000004","NAME":"曲沃县高显水库","SOURCE":"Q2011","GDB_FROM_D":"2012-08-30T00:00:00.000Z","GDB_TO_DAT":"9999-01-01T00:00:00.000Z","TYPE_":0,"longtitude":0,"altitude":0,"type":"0","ORIG_FID":308}},
{"type":"Feature","geometry":{"type":"Point","coordinates":[112.362352927761,35.55481883655602]},"properties":{"ID":"140522000014","NAME":"陕庄水库","SOURCE":"Q2011","GDB_FROM_D":"2012-08-30T00:00:00.000Z","GDB_TO_DAT":"9999-01-01T00:00:00.000Z","TYPE_":0,"longtitude":0,"altitude":0,"type":"0","ORIG_FID":309}},
{"type":"Feature","geometry":{"type":"Point","coordinates":[113.79687755389718,40.19087521788699]},"properties":{"ID":"140221000022","NAME":"上富寨水库","SOURCE":"Q2011","GDB_FROM_D":"2012-08-30T00:00:00.000Z","GDB_TO_DAT":"9999-01-01T00:00:00.000Z","TYPE_":0,"longtitude":0,"altitude":0,"type":"0","ORIG_FID":310}},
{"type":"Feature","geometry":{"type":"Point","coordinates":[113.58442047233537,37.56277849670205]},"properties":{"ID":"140724000006","NAME":"上讲堂水库","SOURCE":"Q2011","GDB_FROM_D":"2012-08-30T00:00:00.000Z","GDB_TO_DAT":"9999-01-01T00:00:00.000Z","TYPE_":0,"longtitude":0,"altitude":0,"type":"0","ORIG_FID":311}},
{"type":"Feature","geometry":{"type":"Point","coordinates":[112.84356115801071,36.438541382813504]},"properties":{"ID":"140424000023","NAME":"上莲水库","SOURCE":"Q2011","GDB_FROM_D":"2012-08-30T00:00:00.000Z","GDB_TO_DAT":"9999-01-01T00:00:00.000Z","TYPE_":0,"longtitude":0,"altitude":0,"type":"0","ORIG_FID":312}},
{"type":"Feature","geometry":{"type":"Point","coordinates":[113.63222038631562,37.67759670380469]},"properties":{"ID":"140321000010","NAME":"上马郡头水库","SOURCE":"Q2011","GDB_FROM_D":"2012-08-30T00:00:00.000Z","GDB_TO_DAT":"9999-01-01T00:00:00.000Z","TYPE_":0,"longtitude":0,"altitude":0,"type":"0","ORIG_FID":313}},
{"type":"Feature","geometry":{"type":"Point","coordinates":[111.02567120646277,35.2075079156418]},"properties":{"ID":"140802000014","NAME":"上马水库","SOURCE":"Q2011","GDB_FROM_D":"2012-08-30T00:00:00.000Z","GDB_TO_DAT":"9999-01-01T00:00:00.000Z","TYPE_":0,"longtitude":0,"altitude":0,"type":"0","ORIG_FID":314}},
{"type":"Feature","geometry":{"type":"Point","coordinates":[112.48588638241388,39.20123703132994]},"properties":{"ID":"140602000015","NAME":"上沙塄河水库","SOURCE":"Q2011","GDB_FROM_D":"2012-08-30T00:00:00.000Z","GDB_TO_DAT":"9999-01-01T00:00:00.000Z","TYPE_":0,"longtitude":0,"altitude":0,"type":"0","ORIG_FID":315}},
{"type":"Feature","geometry":{"type":"Point","coordinates":[110.70298186770555,36.04127252210333]},"properties":{"ID":"141028000002","NAME":"上帖水库","SOURCE":"Q2011","GDB_FROM_D":"2012-08-30T00:00:00.000Z","GDB_TO_DAT":"9999-01-01T00:00:00.000Z","TYPE_":0,"longtitude":0,"altitude":0,"type":"0","ORIG_FID":316}},
{"type":"Feature","geometry":{"type":"Point","coordinates":[113.6593968099963,39.831075224097994]},"properties":{"ID":"140225000004","NAME":"上辛安水库","SOURCE":"Q2011","GDB_FROM_D":"2012-08-30T00:00:00.000Z","GDB_TO_DAT":"9999-01-01T00:00:00.000Z","TYPE_":0,"longtitude":0,"altitude":0,"type":"0","ORIG_FID":317}},
{"type":"Feature","geometry":{"type":"Point","coordinates":[113.51482159468546,37.7364117658525]},"properties":{"ID":"140321000004","NAME":"上冶头水库","SOURCE":"Q2011","GDB_FROM_D":"2012-08-30T00:00:00.000Z","GDB_TO_DAT":"9999-01-01T00:00:00.000Z","TYPE_":0,"longtitude":0,"altitude":0,"type":"0","ORIG_FID":318}},
{"type":"Feature","geometry":{"type":"Point","coordinates":[112.62362400498692,35.49910176715965]},"properties":{"ID":"140525000010","NAME":"上掌水库","SOURCE":"Q2011","GDB_FROM_D":"2012-08-30T00:00:00.000Z","GDB_TO_DAT":"9999-01-01T00:00:00.000Z","TYPE_":0,"longtitude":0,"altitude":0,"type":"0","ORIG_FID":319}},
{"type":"Feature","geometry":{"type":"Point","coordinates":[111.93270834778001,35.206092156483834]},"properties":{"ID":"140827000005","NAME":"上庄水库","SOURCE":"Q2011","GDB_FROM_D":"2012-08-30T00:00:00.000Z","GDB_TO_DAT":"9999-01-01T00:00:00.000Z","TYPE_":0,"longtitude":0,"altitude":0,"type":"0","ORIG_FID":320}},
{"type":"Feature","geometry":{"type":"Point","coordinates":[112.47620149153296,39.4138177144038]},"properties":{"ID":"140602000002","NAME":"赵家口水库","SOURCE":"Q2011","GDB_FROM_D":"2012-08-30T00:00:00.000Z","GDB_TO_DAT":"9999-01-01T00:00:00.000Z","TYPE_":0,"longtitude":0,"altitude":0,"type":"0","ORIG_FID":321}},
{"type":"Feature","geometry":{"type":"Point","coordinates":[113.8347858830662,40.20478155301672]},"properties":{"ID":"140221000021","NAME":"赵家寨水库","SOURCE":"Q2011","GDB_FROM_D":"2012-08-30T00:00:00.000Z","GDB_TO_DAT":"9999-01-01T00:00:00.000Z","TYPE_":0,"longtitude":0,"altitude":0,"type":"0","ORIG_FID":322}},
{"type":"Feature","geometry":{"type":"Point","coordinates":[111.19181282733663,39.05929472279456]},"properties":{"ID":"140931000001","NAME":"赵家寨水库","SOURCE":"Q2011","GDB_FROM_D":"2012-08-30T00:00:00.000Z","GDB_TO_DAT":"9999-01-01T00:00:00.000Z","TYPE_":0,"longtitude":0,"altitude":0,"type":"0","ORIG_FID":323}},
{"type":"Feature","geometry":{"type":"Point","coordinates":[111.96183705328204,35.19824450919587]},"properties":{"ID":"140827000002","NAME":"赵寨水库","SOURCE":"Q2011","GDB_FROM_D":"2012-08-30T00:00:00.000Z","GDB_TO_DAT":"9999-01-01T00:00:00.000Z","TYPE_":0,"longtitude":0,"altitude":0,"type":"0","ORIG_FID":324}},
{"type":"Feature","geometry":{"type":"Point","coordinates":[112.84930792973486,35.95335738418515]},"properties":{"ID":"140581000014","NAME":"赵庄水库","SOURCE":"Q2011","GDB_FROM_D":"2012-08-30T00:00:00.000Z","GDB_TO_DAT":"9999-01-01T00:00:00.000Z","TYPE_":0,"longtitude":0,"altitude":0,"type":"0","ORIG_FID":325}},
{"type":"Feature","geometry":{"type":"Point","coordinates":[113.84899749227782,37.506712281838844]},"properties":{"ID":"140724000020","NAME":"赵庄水库","SOURCE":"Q2011","GDB_FROM_D":"2012-08-30T00:00:00.000Z","GDB_TO_DAT":"9999-01-01T00:00:00.000Z","TYPE_":0,"longtitude":0,"altitude":0,"type":"0","ORIG_FID":326}},
{"type":"Feature","geometry":{"type":"Point","coordinates":[113.47096089590697,35.83775225756592]},"properties":{"ID":"140524000017","NAME":"浙水水库","SOURCE":"Q2011","GDB_FROM_D":"2012-08-30T00:00:00.000Z","GDB_TO_DAT":"9999-01-01T00:00:00.000Z","TYPE_":0,"longtitude":0,"altitude":0,"type":"0","ORIG_FID":327}},
{"type":"Feature","geometry":{"type":"Point","coordinates":[113.88017420991193,37.77208911380298]},"properties":{"ID":"140321000013","NAME":"岭南河水库","SOURCE":"Q2011","GDB_FROM_D":"2012-08-30T00:00:00.000Z","GDB_TO_DAT":"9999-01-01T00:00:00.000Z","TYPE_":0,"longtitude":0,"altitude":0,"type":"0","ORIG_FID":328}},
{"type":"Feature","geometry":{"type":"Point","coordinates":[113.71137431090442,37.37447584993359]},"properties":{"ID":"140723000002","NAME":"岭南水库","SOURCE":"Q2011","GDB_FROM_D":"2012-08-30T00:00:00.000Z","GDB_TO_DAT":"9999-01-01T00:00:00.000Z","TYPE_":0,"longtitude":0,"altitude":0,"type":"0","ORIG_FID":329}},
{"type":"Feature","geometry":{"type":"Point","coordinates":[113.01139115004753,40.17970203648441]},"properties":{"ID":"140212000009","NAME":"刘安窑水库","SOURCE":"Q2011","GDB_FROM_D":"2012-08-30T00:00:00.000Z","GDB_TO_DAT":"9999-01-01T00:00:00.000Z","TYPE_":0,"longtitude":0,"altitude":0,"type":"0","ORIG_FID":330}},
{"type":"Feature","geometry":{"type":"Point","coordinates":[111.90569616633405,36.02424007881845]},"properties":{"ID":"141027000005","NAME":"刘村沟水库","SOURCE":"Q2011","GDB_FROM_D":"2012-08-30T00:00:00.000Z","GDB_TO_DAT":"9999-01-01T00:00:00.000Z","TYPE_":0,"longtitude":0,"altitude":0,"type":"0","ORIG_FID":331}},
{"type":"Feature","geometry":{"type":"Point","coordinates":[112.70855148403254,35.62035826816558]},"properties":{"ID":"140525000017","NAME":"刘村水库","SOURCE":"Q2011","GDB_FROM_D":"2012-08-30T00:00:00.000Z","GDB_TO_DAT":"9999-01-01T00:00:00.000Z","TYPE_":0,"longtitude":0,"altitude":0,"type":"0","ORIG_FID":332}},
{"type":"Feature","geometry":{"type":"Point","coordinates":[111.26795279005096,34.92224901258578]},"properties":{"ID":"140829000034","NAME":"刘家沟水库","SOURCE":"Q2011","GDB_FROM_D":"2012-08-30T00:00:00.000Z","GDB_TO_DAT":"9999-01-01T00:00:00.000Z","TYPE_":0,"longtitude":0,"altitude":0,"type":"0","ORIG_FID":333}},
{"type":"Feature","geometry":{"type":"Point","coordinates":[112.98315841759602,37.830745836879814]},"properties":{"ID":"140725000004","NAME":"刘家山水库","SOURCE":"Q2011","GDB_FROM_D":"2012-08-30T00:00:00.000Z","GDB_TO_DAT":"9999-01-01T00:00:00.000Z","TYPE_":0,"longtitude":0,"altitude":0,"type":"0","ORIG_FID":334}},
{"type":"Feature","geometry":{"type":"Point","coordinates":[111.00891509942987,37.7949989896266]},"properties":{"ID":"141124000005","NAME":"刘王沟水库","SOURCE":"Q2011","GDB_FROM_D":"2012-08-30T00:00:00.000Z","GDB_TO_DAT":"9999-01-01T00:00:00.000Z","TYPE_":0,"longtitude":0,"altitude":0,"type":"0","ORIG_FID":335}},
{"type":"Feature","geometry":{"type":"Point","coordinates":[112.55546520532334,38.60970020024046]},"properties":{"ID":"140981000019","NAME":"刘庄水库","SOURCE":"Q2011","GDB_FROM_D":"2012-08-30T00:00:00.000Z","GDB_TO_DAT":"9999-01-01T00:00:00.000Z","TYPE_":0,"longtitude":0,"altitude":0,"type":"0","ORIG_FID":336}},
{"type":"Feature","geometry":{"type":"Point","coordinates":[113.25737106369314,35.917926257749535]},